id;state;nature;address;zipcode;numero;cardinal;voie;lieu_dit;city;county;ministry;description;registration_year;buyer;procedure;disposal_year;latitude;longitude
166361;Cession à venir;ESPACE AMENAGE;13, route de la Forêt;87800;;;;;BIARD;VIENNE;null;null;null;null;null;null;46.585371;0.282524
166365;Cession à venir;ESPACE AMENAGE;20, rue de Montbauron;78000;;;;;VERSAILLES;YVELINES;null;null;null;null;null;null;48.804791;2.13591
166609;Cession à venir;LOGEMENT;10 et 12, rue Bégand;10000;;;;;TROYES;AUBE;null;null;null;null;null;null;48.29369;4.065262
166709;Cession à venir;BUREAU;158, rue Victor Thuillat;87100;;;;;LIMOGES;HAUTE-VIENNE;null;null;null;null;null;null;45.849129;1.253995
166813;Cession à venir;ESPACE AMENAGE;1, rue du Moulin de la Prée;17300;;;;;ROCHEFORT;CHARENTE-MARITIME;null;null;null;null;null;null;45.941741;-0.986554
166871;Cession à venir;ESPACE AMENAGE;15, rue de l'Alma;42230;;;;;SAINT ETIENNE;LOIRE;null;null;null;null;null;null;45.441179;4.382797
166984;Cession à venir;BUREAU;6, rue de la Manufacture;;;;;;;;;;;;;;47.905407;1.91585
166998;Cession à venir;ESPACE AMENAGE;Bois des hauts Hêtres;;;;;;;;;;;;;;43.664606;2.340106
167504;Cession à venir;ESPACE AMENAGE;8, rue Edouard Branly;45100;;;;;ORLEANS;LOIRET;null;null;null;null;null;null;47.833414;1.933909
171066;Cession à venir;null;Route de Nageot et La Maison Blanche;77320;;;;;LA FERTE GAUCHER;SEINE-ET-MARNE;null;null;null;null;null;null;48.782528;3.295519
171114;Cession à venir;null;Les Chaumes;3350;;;;;THENEUILLE;ALLIER;Ministère de la Transition écologique et solidaire;null;null;null;null;null;46.617477;2.882588
171167;Cession à venir;null;Lieu-dit Saint-Ferréol;;;;;;;;;;;;;;44.741382;5.392408
171168;Cession à venir;null;L'Auche;;;;;;;;;;;;;;44.78003;6.86404
171228;Cession à venir;null;Lieu-dit Caylus;12400;;;;;SAINT-AFFRIQUE;AVEYRON;null;null;null;null;null;null;43.963787;2.894312
171282;Cession à venir;BUREAU;Place Saint Volusien;9000;;;;;FOIX;ARIÈGE;null;null;null;null;null;null;42.966554;1.606593
171284;Cession à venir;null;Lieu-dit Saint-Martin Pailhole;9700;;;;;SAVERDUN;ARIÈGE;null;null;null;null;null;null;43.991282;-1.235237
171285;Cession à venir;null;10, Place de la Joliette;13000;;;;;MARSEILLE;BOUCHES-DU-RHÔNE;null;null;null;null;null;null;43.305285;5.365568
171315;Cession à venir;null;56, Traverse Noire;13000;;;;;MARSEILLE;BOUCHES-DU-RHÔNE;Ministère de la Transition écologique et solidaire;null;null;null;null;null;43.295053;5.46739
171322;Cession à venir;null;Cap de Front;;;;;;;;;;;;;;42.842843;3.038532
171333;Cession à venir;null;Avenue Georges Brassens;;;;;;;;;;;;;;-20.903294;55.484362
171334;Cession à venir;LOGEMENT;null;13700;;;;;SAINT VICTORET;BOUCHES-DU-RHÔNE;null;null;null;null;null;null;43.420591;5.233034
171348;Cession à venir;null;Liesbach;68220;;;;;HESINGUE;HAUT-RHIN;null;null;null;null;null;null;47.575626;7.521156
171358;Cession à venir;null;74, rue de Firminy;15000;;;;;AURILLAC;CANTAL;Ministère de la Transition écologique et solidaire;null;null;null;null;null;44.915307;2.431262
171359;Cession à venir;null;14, rue Robert d'Humières;15000;;;;;AURILLAC;CANTAL;Ministère de l'Action et des Comptes publics;null;null;null;null;null;44.919604;2.437298
171397;Cession à venir;null;Chemin Saint Laurent - Domaine Saint Laurent - Route de la Boissière;34150;;;;;ANIANE;HÉRAULT;null;null;null;null;null;null;;
171413;Cession à venir;null;168 et 170, chemin des Remparts;17000;;;;;LA ROCHELLE;CHARENTE-MARITIME;Ministère de la Transition écologique et solidaire;null;null;null;null;null;46.159872;-1.156699
171447;Cession à venir;null;RD 17 proche du Pont de fer SNCF;;;;;;;;;;;;;;49.194395;3.516435
171452;Cession à venir;null;36, avenue du Général de Gaulle;19000;;;;;TULLE;CORRÈZE;null;null;null;null;null;null;45.269778;1.769181
171464;Cession à venir;null;Les Crottes;23170;;;;;NOUHANT;CREUSE;Ministère de la Transition écologique et solidaire;null;null;null;null;null;46.281869;2.391654
171465;Cession à venir;null;De la Séove;35550;;;;;PARSAC;CREUSE;Ministère de la Transition écologique et solidaire;null;null;null;null;null;47.752482;-1.991668
171483;Cession à venir;null;Les Reilles;24230;;;;;VELINES;DORDOGNE;null;null;null;null;null;null;44.85195;0.102533
171484;Cession à venir;BUREAU;237, rue de Crépy;60320;;;;;BETHISY SAINT MARTIN;OISE;null;null;null;null;null;null;49.294538;2.818003
171498;Cession à venir;null;6, rue de l'Evêché;;;;;;;;;;;;;;43.297891;5.365911
171500;Cession à venir;null;Les Carrières;18000;;;;;BOURGES;CHER;null;null;null;null;null;null;47.063705;2.38952
171501;Cession à venir;null;Chemin;;;;;;;;;;;;;;46.980087;5.315679
171509;Cession à venir;null;Lieu-dit Vituletto;20234;;;;;PIETRICAGGIO;HAUTE CORSE;null;null;null;null;null;null;42.337509;9.380627
171518;Cession à venir;null;Ile Beaume - ZL 94, 96;26270;;;;;SAULCE SUR RHONE;DRÔME;null;null;null;null;null;null;44.678555;4.794685
171520;Cession à venir;null;Les Roux;;;;;;;;;;;;;;46.128468;4.943396
171521;Cession à venir;null;Fabrias - BD 12, 13, 14;26130;;;;;SAINT PAUL TROIS CHATEAUX;DRÔME;null;null;null;null;null;null;44.349614;4.751529
171537;Cession à venir;null;Place Capitaine Georges Valentin;21600;;;;;LONGVIC;CÔTE D'OR;null;null;null;null;null;null;47.290007;5.0623
171538;Cession à venir;null;1, place de l'Ancienne Comédie;21140;;;;;SEMUR EN AUXOIS;CÔTE D'OR;Ministère de l'Action et des Comptes publics;null;null;null;null;null;47.490218;4.334039
171544;Cession à venir;null;Rue du Commandant Coadou;22300;;;;;LANNION;CÔTES D'ARMOR;Ministère de la Transition écologique et solidaire;null;null;null;null;null;48.75048;-3.46318
171554;Cession à venir;LOGEMENT;8, rue Paul Bert;22000;;;;;SAINT BRIEUC;CÔTES D'ARMOR;null;null;null;null;null;null;48.508532;-2.754479
171555;Cession à venir;null;Rue Sully;22000;;;;;SAINT BRIEUC;CÔTES D'ARMOR;null;null;null;null;null;null;48.501726;-2.748246
171557;Cession à venir;null;34, rue de Paris;22000;;;;;SAINT BRIEUC;CÔTES D'ARMOR;null;null;null;null;null;null;48.504272;-2.741851
171660;Cession à venir;null;6-8, rue Carnot;;;;;;;;;;;;;;48.955002;4.365467
171680;Cession à venir;null;1, place Paul Comte;81700;;;;;FLORAC;LOZÈRE;null;null;null;null;null;null;43.594962;2.005208
171681;Cession à venir;ESPACE NATUREL;null;87210;;;;;LE DORAT;HAUTE-VIENNE;null;null;null;null;null;null;46.217472;1.091906
171689;Cession à venir;null;Lieu-dit Quartier Théophile Féret;27680;;;;;QUILLEBEUF SUR SEINE;EURE;null;null;null;null;null;null;49.469572;0.530319
171692;Cession à venir;null;Lieu-dit les Genêts;;;;;;;;;;;;;;49.196005;6.891153
171710;Cession à venir;null;Gerbam ex-Polygones d'Expériences Gavres;56680;;;;;GAVRES;MORBIHAN;null;null;null;null;null;null;47.697806;-3.350777
171717;Cession à venir;null;Terrains;;;;;;;;;;;;;;44.680423;2.530996
171723;Cession à venir;null;RN 106;;;;;;;;;;;;;;44.554026;3.50473
171727;Cession à venir;null;Moulin du Major;;;;;;;;;;;;;;43.102727;2.809323
171730;Cession à venir;ESPACE AMENAGE;"Caserne ""LCL Berthezene""";;;;;;;;;;;;;;44.094576;3.636354
171732;Cession à venir;null;Mont Cavala;30360;;;;;VEZENOBRES;GARD;Ministère de la Transition écologique et solidaire;null;null;null;null;null;44.052312;4.135657
171735;Cession à venir;null;Pienne Basse;;;;;;;;;;;;;;43.911749;7.517444
171738;Cession à venir;null;Quartier du Rey - Lieu-dit Bourg;;;;;;;;;;;;;;;
171739;Cession à venir;null;Nauzes;82710;;;;;BRESSOLS;TARN-ET-GARONNE;null;null;null;null;null;null;43.958537;1.326924
171742;Cession à venir;null;13, rue de la Rive;6430;;;;;LA BRIGUE;ALPES-MARITIMES;null;null;null;null;null;null;44.061886;7.616411
171743;Cession à venir;null;Délaissés RN 106;30440;;;;;LA ROUVIERE;GARD;Ministère de la Transition écologique et solidaire;null;null;null;null;null;43.985853;3.718962
171744;Cession à venir;null;Lieu-dit la Grande Vallée du Buisson;;;;;;;;;;;;;;47.705546;2.633874
171746;Cession à venir;null;Lieu-dit Lande-Houlié;65150;;;;;CANTAOUS;HAUTES-PYRÉNÉES;Ministère de la Transition écologique et solidaire;null;null;null;null;null;43.10023;0.441255
171747;Cession à venir;null;Avenue de l'Argonne - Lieu-dit Beutre;;;;;;;;;;;;;;45.788996;-0.061057
171749;Cession à venir;null;6, rue Roger Salengro;41700;;;;;CONTRES;LOIR-ET-CHER;Ministère de la Transition écologique et solidaire;null;null;null;null;null;47.419972;1.433068
171751;Cession à venir;null;Touche Boeuf;55400;;;;;MOULAINVILLE;MEUSE;null;null;null;null;null;null;49.161307;5.494088
171754;Cession à venir;null;Boulevard Gambetta;;;;;;;;;;;;;;45.828165;1.257012
171762;Cession à venir;null;Corniche André de Joly;;;;;;;;;;;;;;43.700752;7.294323
171763;Cession à venir;null;Chemin Sainte-Anne;6130;;;;;GRASSE;ALPES-MARITIMES;Ministère de la Transition écologique et solidaire;null;null;null;null;null;43.649524;6.909568
171767;Cession à venir;null;12, boulevard Carnot;6130;;;;;GRASSE;ALPES-MARITIMES;null;null;null;null;null;null;43.655141;6.921542
171769;Cession à venir;null;11, rue Maurice Gignoux;38000;;;;;GRENOBLE;ISÈRE;null;null;null;null;null;null;45.194513;5.72406
171773;Cession à venir;null;Lieu-dit la Billoyre;81310;;;;;SAINT JEANNET;ALPES-MARITIMES;null;null;null;null;null;null;43.741497;7.155085
171774;Cession à venir;null;Parcelles AS 102 et 103;81310;;;;;SAINT-JEANNET;ALPES-MARITIMES;null;null;null;null;null;null;43.922082;1.735087
171780;Cession à venir;null;Subdivision Maritime;;;;;;;;;;;;;;43.441657;3.696569
171782;Cession à venir;null;829, avenue du Rhin et du Danube;;;;;;;;;;;;;;43.725034;7.096994
171784;Cession à venir;null;Domaine de l'Ermitage (partie);;;;;;;;;;;;;;50.520976;1.593976
171815;Cession à venir;null;23, avenue Henri Guillaumet;31500;;;;;TOULOUSE;HAUTE-GARONNE;null;null;null;null;null;null;43.614442;1.469566
171816;Cession à venir;null;18 et 18 bis, rue Grand-Rue Saint-Michel;;;;;;;;;;;;;;43.586139;1.447398
171846;Cession à venir;null;Le Gavois;37130;;;;;CHATEAUFORT;YVELINES;null;null;null;null;null;null;47.330058;0.39744
171861;Cession à venir;null;Rue 1 er Mai;62800;;;;;LIEVIN;PAS-DE-CALAIS;Ministère de l'Économie et des Finances;null;null;null;null;null;50.416515;2.795228
171863;Cession à venir;null;6, chemin des écoliers;23420;;;;;MERINCHAL;CREUSE;null;null;null;null;null;null;45.916758;2.487814
171872;Cession à venir;null;Caserne de Pontaniou;;;;;;;;;;;;;;48.387076;-4.500469
171875;Cession à venir;SUPPORT DE PARCELLE;2, Quai petit rempart rive droite;59163;;;;;CONDE SUR L ESCAUT;NORD;null;null;null;null;null;null;50.448865;3.59555
171878;Cession à venir;null;BA 901;67160;;;;;DRACHENBRONN BIRLENBACH;BAS-RHIN;null;null;null;null;null;null;48.985847;7.869757
171894;Cession à venir;null;Saint Vincent;82110;;;;;LE BOSC;HÉRAULT;Ministère de la Transition écologique et solidaire;null;null;null;null;null;44.217901;1.220047
171906;Cession à venir;null;Les Joies B834;;;;;;;;;;;;;;44.455469;4.522698
171911;Cession à venir;null;Rue Guillaume;37800;;;;;NOUATRE;INDRE-ET-LOIRE;null;null;null;null;null;null;47.053929;0.55409
171915;Cession à venir;null;5, chemin Colonie;34300;;;;;AGDE;HÉRAULT;null;null;null;null;null;null;43.287605;3.460934
171920;Cession à venir;null;117, rue de Boisdenier;37200;;;;;TOURS;INDRE-ET-LOIRE;null;null;null;null;null;null;47.384492;0.680628
171925;Cession à venir;null;Les Aisements;8430;;;;;LAUNOIS SUR VENCE;ARDENNES;null;null;null;null;null;null;49.65867;4.531027
171926;Cession à venir;null;2, rue Hallebardier;37200;;;;;TOURS;INDRE-ET-LOIRE;null;null;null;null;null;null;47.382906;0.696463
171944;Cession à venir;null;2, rue du Faubourg Saint Jaumes;34070;;;;;MONTPELLIER;HÉRAULT;null;null;null;null;null;null;43.613902;3.870562
171946;Cession à venir;null;Le Millénaire - Réseaux voirie;;;;;;;;;;;;;;;
171950;Cession à venir;null;CETE;;;;;;;;;;;;;;42.938031;-0.584534
171956;Cession à venir;null;180, rue d'Argencourt;;;;;;;;;;;;;;43.613062;3.885189
171961;Cession à venir;null;13, rue Rigaud;34070;;;;;MONTPELLIER;HÉRAULT;Ministère de l'Action et des Comptes publics;null;null;null;null;null;43.604848;3.842243
171976;Cession à venir;null;24, rue Antoine Joly;35700;;;;;RENNES;ILLE-ET-VILAINE;null;null;null;null;null;null;48.122886;-1.689978
171980;Cession à venir;null;56, Boulevard Jacques Cartier;35700;;;;;RENNES;ILLE-ET-VILAINE;null;null;null;null;null;null;48.096925;-1.684101
171981;Cession à venir;null;Place Sainte Mélaine;35700;;;;;RENNES;ILLE-ET-VILAINE;null;null;null;null;null;null;48.114881;-1.674012
171983;Cession à venir;null;1, rue de la Crosse;35400;;;;;SAINT MALO;ILLE-ET-VILAINE;null;null;null;null;null;null;48.648141;-2.028045
172008;Cession à venir;null;Moulin à vent;71300;;;;;MONT SAINT VINCENT;SAÔNE-ET-LOIRE;Ministère de la Transition écologique et solidaire;null;null;null;null;null;46.627501;4.476821
172016;Cession à venir;null;Lieu-dit les Parcelles;40280;;;;;SAINT PIERRE DU MONT;LANDES;null;null;null;null;null;null;43.886169;-0.526522
172021;Cession à venir;null;35, avenue Hamecher;82000;;;;;MONTAUBAN;TARN-ET-GARONNE;null;null;null;null;null;null;44.010719;1.34495
172043;Cession à venir;null;Boulevard d'Arras;42300;;;;;ROANNE;LOIRE;null;null;null;null;null;null;46.058426;4.074502
172055;Cession à venir;null;Les Îles;42520;;;;;SAINT PIERRE DE BOEUF;LOIRE;null;null;null;null;null;null;45.388346;4.754655
172060;Cession à venir;null;La Chabossiere;;;;;;;;;;;;;;46.832635;-0.989775
172061;Cession à venir;null;La Rampinsolle Nord - AT 356;24660;;;;;COULOUNIEIX CHAMIERS;DORDOGNE;null;null;null;null;null;null;45.155284;0.71013
172062;Cession à venir;null;Le Prè du Stade;23000;;;;;GUERET;CREUSE;Ministère de la Transition écologique et solidaire;null;null;null;null;null;46.180214;1.873223
172077;Cession à venir;null;Caserne Commandant Rivière;;;;;;;;;;;;;;47.222655;-1.536623
172078;Cession à venir;null;5, rue des Ecachoirs;44300;;;;;NANTES;LOIRE-ATLANTIQUE;null;null;null;null;null;null;47.226994;-1.546656
172102;Cession à venir;null;Champ du Nayet;73870;;;;;AINST JULIEN MONT DENIS;SAVOIE;null;null;null;null;null;null;45.254511;6.408337
172108;Cession à venir;null;Au Petit Touquet;59520;;;;;MARQUETTE LEZ LILLE;NORD;null;null;null;null;null;null;50.680154;3.068793
172109;Cession à venir;null;17, rue saint Cyr du Coquard;47300;;;;;VILLENEUVE SUR LOT;LOT-ET-GARONNE;null;null;null;null;null;null;44.406368;0.708545
172110;Cession à venir;null;Chemin de Halage;;;;;;;;;;;;;;49.894415;2.315345
172114;Cession à venir;BUREAU;19, rue du Pré Vival;48000;;;;;MENDE;LOZÈRE;null;null;null;null;null;null;44.519895;3.501241
172117;Cession à venir;null;Cabazat;;;;;;;;;;;;;;44.445326;1.428329
172129;Cession à venir;null;Champ Ferrier;26410;;;;;MENGLON;DRÔME;null;null;null;null;null;null;44.675013;5.471063
172144;Cession à venir;null;32 bis, Rempart de l'est;16000;;;;;ANGOULÊME;CHARENTE;null;null;null;null;null;null;45.647481;0.158718
172145;Cession à venir;null;10, place Guillemin;59440;;;;;AVESNES SUR HELPE;NORD;null;null;null;null;null;null;50.122783;3.932303
172147;Cession à venir;null;Allée de la Chartreuse;84000;;;;;AVIGNON;VAUCLUSE;Ministère de la Transition écologique et solidaire;null;null;null;null;null;43.901868;4.897788
172151;Cession à venir;null;Rue de Roanne;42510;;;;;BALBIGNY;LOIRE;Ministère de la Transition écologique et solidaire;null;null;null;null;null;45.821795;4.180301
172156;Cession à venir;null;Le Fort du Bois d'Oye;68650;;;;;BERMONT;TERRITOIRE-DE-BELFORT;null;null;null;null;null;null;47.579477;6.850594
172167;Cession à venir;null;Rue Cornulier;44300;;;;;NANTES;LOIRE-ATLANTIQUE;null;null;null;null;null;null;47.214944;-1.540491
172170;Cession à venir;null;Rue François Lavieille;50100;;;;;CHERBOURG-OCTEVILLE;MANCHE;null;null;null;null;null;null;49.64088;-1.625835
172171;Cession à venir;null;Boulevard de la Vendée;;;;;;;;;;;;;;47.954632;0.168556
172176;Cession à venir;null;Grande Bapleaume;95120;;;;;ERMONT;VAL-D'OISE;null;null;null;null;null;null;48.987498;2.257662
172182;Cession à venir;null;Camp de la Torpille;44600;;;;;SAINT NAZAIRE;LOIRE-ATLANTIQUE;null;null;null;null;null;null;47.238717;-2.29689
172188;Cession à venir;null;5, rue Basse de Compertrix;51000;;;;;CHALONS EN CHAMPAGNE;MARNE;Ministère de la Transition écologique et solidaire;null;null;null;null;null;48.949695;4.350458
172190;Cession à venir;null;47, rue Kellermann;51000;;;;;CHALONS EN CHAMPAGNE;MARNE;Ministère de la Transition écologique et solidaire;null;null;null;null;null;48.960743;4.369969
172193;Cession à venir;null;Avenue Francis Tonner;6400;;;;;CANNES;ALPES-MARITIMES;Ministère de la Transition écologique et solidaire;null;null;null;null;null;43.549597;6.974423
172195;Cession à venir;null;Avenue du Pont d'Epinay;92230;;;;;GENNEVILLIERS;HAUTS-DE-SEINE;Ministère de la Transition écologique et solidaire;null;null;null;null;null;48.944023;2.303418
172202;Cession à venir;ESPACE NATUREL;Sur la Roche;;;;;;;;;;;;;;46.266274;5.80797
172212;Cession à venir;null;Rue Pablo Néruda;;;;;;;;;;;;;;45.76719;3.122026
172220;Cession à venir;null;Champs des Raies;;;;;;;;;;;;;;47.382863;5.054656
172225;Cession à venir;null;Long des Charmes;54200;;;;;ECROUVES;MEURTHE-ET-MOSELLE;null;null;null;null;null;null;48.673307;5.867779
172240;Cession à venir;null;Rectorat;;;;;;;;;;;;;;42.477084;3.125346
172246;Cession à venir;null;Rectorat;;;;;;;;;;;;;;42.477084;3.125346
172248;Cession à venir;null;Rue Gustave Delory;59160;;;;;LILLE;NORD;null;null;null;null;null;null;50.633509;3.06883
172260;Cession à venir;null;La Grande Pierre;55000;;;;;LISLE EN RIGAULT;MEUSE;null;null;null;null;null;null;48.720108;5.052556
172262;Cession à venir;null;Rue Belle Isle;57050;;;;;METZ;MOSELLE;null;null;null;null;null;null;49.123078;6.171057
172263;Cession à venir;null;A Lichou;32170;;;;;MONT DE MARRAST;GERS;null;null;null;null;null;null;43.383158;0.357214
172264;Cession à venir;LOGEMENT;Les Mocbary & les Corbelins;58450;;;;;NEUVY SUR LOIRE;NIÈVRE;null;null;null;null;null;null;47.547481;2.856946
172283;Cession à venir;null;Bâtiment 3-5;;;;;;;;;;;;;;48.2513;4.05134
172285;Cession à venir;null;Rue 1 er Mai;92000;;;;;NANTERRE;HAUTS-DE-SEINE;null;null;null;null;null;null;48.911592;2.216507
172287;Cession à venir;null;Rue de Lille;59223;;;;;RONCQ;NORD;null;null;null;null;null;null;50.747611;3.118989
172288;Cession à venir;null;La Rousselle;;;;;;;;;;;;;;44.930289;4.004368
172294;Cession à venir;null;Bâtiment Hugo;;;;;;;;;;;;;;44.309239;0.431728
172295;Cession à venir;null;Bâtiment Gueldres;;;;;;;;;;;;;;49.860051;2.278589
172296;Cession à venir;null;Avenue du Maréchal Juin;54000;;;;;NANCY;MEURTHE-ET-MOSELLE;null;null;null;null;null;null;48.679108;6.17299
172299;Cession à venir;null;4, rue d'Auxonne;54000;;;;;NANCY;MEURTHE-ET-MOSELLE;null;null;null;null;null;null;48.700644;6.166647
172300;Cession à venir;null;Rue Mably;54000;;;;;NANCY;MEURTHE-ET-MOSELLE;null;null;null;null;null;null;48.690739;6.187372
172301;Cession à venir;null;Rue Santifontaine;54000;;;;;NANCY;MEURTHE-ET-MOSELLE;null;null;null;null;null;null;48.68803;6.159247
172302;Cession à venir;null;95, rue de Metz;54000;;;;;NANCY;MEURTHE-ET-MOSELLE;null;null;null;null;null;null;48.704148;6.169648
172305;Cession à venir;null;25-29, boulevard Joffre;54000;;;;;NANCY;MEURTHE-ET-MOSELLE;null;null;null;null;null;null;48.687677;6.178556
172324;Cession à venir;BUREAU;7, rue du Franc Marchè;60000;;;;;BEAUVAIS;OISE;null;null;null;null;null;null;49.43743;2.085121
172330;Cession à venir;null;28, rue du Maréchal de Boufflers;60000;;;;;BEAUVAIS;OISE;null;null;null;null;null;null;49.427536;2.076076
172341;Cession à venir;null;Etablissement Lieutenant Faron;54500;;;;;VANDOEUVRE LES NANCY;MEURTHE-ET-MOSELLE;null;null;null;null;null;null;48.655878;6.166902
172343;Cession à venir;null;Quartier Royallieu - Rue du 67 ème Régiment d'Infanterie;60200;;;;;COMPIEGNE;OISE;null;null;null;null;null;null;49.400948;2.80567
172360;Cession à venir;null;Piste pour engins Blindés;60400;;;;;NOYON;OISE;null;null;null;null;null;null;49.610486;2.972342
172366;Cession à venir;null;Rue Basse;60790;;;;;SAINT CREPIN IBOUVILLERS;OISE;null;null;null;null;null;null;49.279725;2.047242
172397;Cession à venir;null;Lieu-dit l'Aérodrome;;;;;;;;;;;;;;14.5959;-60.992774
172399;Cession à venir;null;13, quai des Abattoirs;48300;;;;;LANGOGNE;LOZÈRE;null;null;null;null;null;null;44.735531;3.855013
172407;Cession à venir;null;Etablissement du Mentec;56530;;;;;QUEVEN;MORBIHAN;null;null;null;null;null;null;47.781596;-3.440806
172408;Cession à venir;null;Caserne Systermans;56000;;;;;VANNES;MORBIHAN;null;null;null;null;null;null;47.655237;-2.763954
172415;Cession à venir;null;113, rue du Commerce;56000;;;;;VANNES;MORBIHAN;null;null;null;null;null;null;47.645808;-2.757754
172416;Cession à venir;null;36, rue de Stalingrad;94110;;;;;ARCUEIL;VAL-DE-MARNE;Ministère de la Transition écologique et solidaire;null;null;null;null;null;48.809842;2.338171
172424;Cession à venir;null;Rue Traverse des Eaux Chaudes;4000;;;;;DIGNE LES BAINS;ALPES DE HAUTE-PROVENCE;Ministère de l'Économie et des Finances;null;null;null;null;null;44.090958;6.237078
172435;Cession à venir;null;Champ l'Etang;;;;;;;;;;;;;;47.058548;3.66373
172436;Cession à venir;null;Au Chauffaud;70500;;;;;JUSSEY;HAUTE-SAÔNE;null;null;null;null;null;null;47.818541;5.900508
172442;Cession à venir;null;1-6, rue des Malgré Nous;57050;;;;;METZ;MOSELLE;null;null;null;null;null;null;49.091914;6.179231
172449;Cession à venir;null;Caserne Reymond (1 ère fraction);;;;;;;;;;;;;;43.794058;4.825856
172450;Cession à venir;null;Rue Général Franiatte;;;;;;;;;;;;;;49.09111;6.154778
172451;Cession à venir;null;Rue Buffon;3100;;;;;MONTLUCON;ALLIER;null;null;null;null;null;null;46.326869;2.590178
172455;Cession à venir;null;"Lieu-dit ""Bockange""";57220;;;;;PIBLANGE;MOSELLE;null;null;null;null;null;null;49.243184;6.420561
172469;Cession à venir;null;Rue de Maubeuge;59210;;;;;COUDEKERQUE BRANCHE;NORD;null;null;null;null;null;null;51.032295;2.40032
172475;Cession à venir;null;1, rue Digue Charles Delpierre;59265;;;;;AUBIGNY AU BAC;NORD;null;null;null;null;null;null;;
172481;Cession à venir;null;Rue Nouvelle des Lionsdards;63000;;;;;CLERMONT FERRAND;PUY-DE-DÔME;null;null;null;null;null;null;45.759368;3.087633
172487;Cession à venir;null;8, rue Sellenick;27700;;;;;LES ANDELYS;EURE;Ministère de l'Action et des Comptes publics;null;null;null;null;null;49.246838;1.416414
172534;Cession à venir;null;30, allées Marines;64100;;;;;BAYONNE;PYRÉNÉES-ATLANTIQUES;null;null;null;null;null;null;43.497419;-1.485235
172536;Cession à venir;null;16, chemin des Romains;30300;;;;;BEAUCAIRE;GARD;null;null;null;null;null;null;43.808943;4.633572
172553;Cession à venir;null;Au Gers;32550;;;;;LASSEUBE PROPRE;GERS;null;null;null;null;null;null;43.575329;0.59504
172555;Cession à venir;null;Cours Aristid Briand;69300;;;;;CALUIRE ET CUIRE;RHÔNE;null;null;null;null;null;null;45.783494;4.844637
172567;Cession à venir;BUREAU;6, rue de l'Enfant Jésus;64000;;;;;PAU;PYRÉNÉES-ATLANTIQUES;null;null;null;null;null;null;43.301182;-0.362228
172573;Cession à venir;null;11, boulevard Gambetta;87100;;;;;LIMOGES;HAUTE-VIENNE;Ministère de la Justice;null;null;null;null;null;45.827444;1.259122
172575;Cession à venir;BUREAU;50, boulevard Laënnec;56100;;;;;LORIENT;MORBIHAN;null;null;null;null;null;null;47.758186;-3.360671
172577;Cession à venir;null;83, rue Roger Salengro;70200;;;;;LURE;HAUTE-SAÔNE;Ministère de la Justice;null;null;null;null;null;47.683742;6.509991
172585;Cession à venir;null;83, avenue Georges Pompidou;40130;;;;;CAPBRETON;LANDES;null;null;null;null;null;null;43.654306;-1.442475
172588;Cession à venir;null;Rue Zone de l'Inquetrie;;;;;;;;;;;;;;45.625839;6.315419
172594;Cession à venir;BATIMENT TECHNIQUE;CRS 29;65300;;;;;LANNEMEZAN;HAUTES-PYRÉNÉES;null;null;null;null;null;null;43.123107;0.384114
172596;Cession à venir;null;Lieu-dit Petit Chemin de Béthune;;;;;;;;;;;;;;50.518798;2.647982
172600;Cession à venir;null;Quai du Maréchal Foch;22300;;;;;LANNION;CÔTES D'ARMOR;null;null;null;null;null;null;48.731254;-3.464644
172603;Cession à venir;null;2, boulevard Bertrand Barère;65000;;;;;TARBES;HAUTES-PYRÉNÉES;null;null;null;null;null;null;43.234142;0.072874
172605;Cession à venir;null;Rue Courbet (pavillon E);65000;;;;;TARBES;HAUTES-PYRÉNÉES;null;null;null;null;null;null;43.238011;0.064839
172606;Cession à venir;null;Rue Courbet (pavillon C);65000;;;;;TARBES;HAUTES-PYRÉNÉES;null;null;null;null;null;null;43.238011;0.064839
172607;Cession à venir;null;Rue Courbet (pavillon F);65000;;;;;TARBES;HAUTES-PYRÉNÉES;null;null;null;null;null;null;43.238011;0.064839
172608;Cession à venir;null;Rue Courbet (pavillon B);65000;;;;;TARBES;HAUTES-PYRÉNÉES;null;null;null;null;null;null;43.238011;0.064839
172631;Cession à venir;null;39, rue Pierre Baizet;;;;;;;;;;;;;;45.792703;4.813628
172634;Cession à venir;null;3 bis, quai Chauveau;69000;;;;;LYON;RHÔNE;Ministère de l'Agriculture et de l'Alimentation;null;null;null;null;null;45.76817;4.812818
172635;Cession à venir;null;39, rue Pierre Baizet;;;;;;;;;;;;;;45.792703;4.813628
172637;Cession à venir;null;Avenue de la Sauvegarde;69000;;;;;LYON;RHÔNE;Ministère de la Transition écologique et solidaire;null;null;null;null;null;45.788061;4.790175
172638;Cession à venir;null;Avenue Georges Pompidou;69000;;;;;LYON;RHÔNE;Ministère de l'Action et des Comptes publics;null;null;null;null;null;45.759167;4.865536
172647;Cession à venir;null;La Font Pezée;3440;;;;;BUXIERES LES MINES;ALLIER;Ministère de la Transition écologique et solidaire;null;null;null;null;null;46.490964;2.970612
172650;Cession à venir;null;Le Village;;;;;;;;;;;;;;45.338735;5.342643
172652;Cession à venir;null;2, avenue des Sports;;;;;;;;;;;;;;47.995452;-4.087845
172655;Cession à venir;null;Chemin lieu-dit Pâtis de la Garenne;52100;;;;;HALLIGNICOURT;HAUTE-MARNE;Office national des Forêts;null;null;null;null;null;;
172657;Cession à venir;null;Les Acqueducs de Beaunant;;;;;;;;;;;;;;45.722432;4.785858
172658;Cession à venir;null;Vordere Winkelmatt section 8 parcelle 7;;;;;;;;;;;;;;;
172659;Cession à venir;null;Les Acqueducs de Beaunant;;;;;;;;;;;;;;45.722432;4.785858
172669;Cession à venir;null;Parcelles sections 10 n°92, 32 n°28, 33 n°15, 45;;;;;;;;;;;;;;16.261385;-61.59103
172709;Cession à venir;BUREAU;53, avenue Jean Giraudoux;66100;;;;;PERPIGNAN;PYRÉNÉES-ORIENTALES;null;null;null;null;null;null;42.680584;2.911572
172716;Cession à venir;null;972, avenue de Lattre de Tassigny;71000;;;;;MACON;SAÔNE-ET-LOIRE;Ministère des Solidarités et de la Santé;null;null;null;null;null;46.310575;4.837865
172717;Cession à venir;null;1, rue Léonce Lex;71000;;;;;MACON;SAÔNE-ET-LOIRE;null;null;null;null;null;null;46.308211;4.833727
172720;Cession à venir;null;Impasse Pasteur;;;;;;;;;;;;;;47.475424;-0.533852
172721;Cession à venir;null;Chalet de Lutz;74300;;;;;MAGLAND;HAUTE-SAVOIE;null;null;null;null;null;null;45.990674;6.637893
172722;Cession à venir;null;Le Tureau;79190;;;;;MONTALEMBERT;DEUX-SÈVRES;null;null;null;null;null;null;46.109602;0.156255
172723;Cession à venir;null;Cité des Cours;71300;;;;;MONTCEAU LES MINES;SAÔNE-ET-LOIRE;Ministère de la Transition écologique et solidaire;null;null;null;null;null;46.669514;4.357793
172729;Cession à venir;null;Champ Devant;71460;;;;;SAINT-GENGOUX-LE-NATIONAL;SAÔNE-ET-LOIRE;Ministère de la Transition écologique et solidaire;null;null;null;null;null;46.613106;4.662201
172734;Cession à venir;null;Les ex Communaux;;;;;;;;;;;;;;46.336726;-1.245179
172740;Cession à venir;null;33, rue Honoré Daumier;66100;;;;;PERPIGNAN;PYRÉNÉES-ORIENTALES;null;null;null;null;null;null;42.705517;2.884577
172745;Cession à venir;null;Cité Pénitentiaire - Route de Kalhausen;67970;;;;;OERMINGEN;BAS-RHIN;null;null;null;null;null;null;49.000202;7.133379
172756;Cession à venir;null;9, rue de Bassenberg;67220;;;;;VILLÉ;BAS-RHIN;null;null;null;null;null;null;48.341048;7.298017
172818;Cession à venir;null;97, avenue Bollée;;;;;;;;;;;;;;48.001629;0.209884
172854;Cession à venir;LOGEMENT;Le Village;9800;;;;;MOINDOU;Nouvelle-Calédonie;null;null;null;null;null;null;43.67085;1.288394
172870;Cession à venir;null;6, avenue de l'Opéra;75000;;;;;PARIS;PARIS;null;null;null;null;null;null;48.864363;2.335234
172886;Cession à venir;null;AUT A16;;;;;;;;;;;;;;45.573652;-0.594768
172890;Cession à venir;null;Hotel Beistegui - 19, rue Constantine;75000;;;;;PARIS;PARIS;null;null;null;null;null;null;48.859699;2.314945
172893;Cession à venir;null;113, rue de Grenelle;75000;;;;;PARIS;PARIS;null;null;null;null;null;null;48.857378;2.317977
172913;Cession à venir;null;1 et 2, rue Blériot;76620;;;;;LE HAVRE;SEINE-MARITIME;Ministère de la Transition écologique et solidaire;null;null;null;null;null;49.520457;0.088284
172915;Cession à venir;null;Hôtel Mailly Nesle;;;;;;;;;;;;;;;
172917;Cession à venir;null;Brêt;74500;;;;;SAINT GINGOLPH;HAUTE-SAVOIE;null;null;null;null;null;null;46.397657;6.767605
172921;Cession à venir;null;Borée Pont Laudon;74410;;;;;SAINT JORIOZ;HAUTE-SAVOIE;null;null;null;null;null;null;45.835719;6.165638
172929;Cession à venir;null;Aux Colonnes;74160;;;;;SAINT JULIEN EN GENEVOIS;HAUTE-SAVOIE;null;null;null;null;null;null;46.137029;6.077861
172945;Cession à venir;null;30, place Gadeau de Kerville;76000;;;;;ROUEN;SEINE-MARITIME;null;null;null;null;null;null;49.430635;1.080371
172949;Cession à venir;null;19, avenue du Maine;75000;;;;;PARIS;PARIS;null;null;null;null;null;null;48.8589;2.3469
172957;Cession à venir;null;102 -116, boulevard Macdonald;75000;;;;;PARIS;PARIS;null;null;null;null;null;null;48.898854;2.383579
172989;Cession à venir;null;Avenue Charles de Gaulle et rue de Monaco;;;;;;;;;;;;;;46.318292;4.837574
172992;Cession à venir;null;Partie CRS 28;;;;;;;;;;;;;;47.666298;-0.158786
172994;Cession à venir;null;La Grande pièce;62340;;;;;BONNINGUES LES CALAIS;PAS-DE-CALAIS;null;null;null;null;null;null;50.883618;1.752937
172998;Cession à venir;null;Ramier;82000;;;;;MONTAUBAN;TARN-ET-GARONNE;null;null;null;null;null;null;44.041586;1.389585
173005;Cession à venir;null;Caserne la Praya;5100;;;;;MONTGENEVRE;HAUTES ALPES;null;null;null;null;null;null;44.932585;6.724869
173019;Cession à venir;null;LA COUR ROLLAND;78350;;;;;JOUY-EN-JOSAS;YVELINES;null;null;null;null;null;null;48.77552;2.17899
173030;Cession à venir;null;"Lieu-dit ""Le Bois Dorval""";;;;;;;;;;;;;;47.945103;-2.662569
173050;Cession à venir;null;13, rue Aliénor d'Aquitaine;;;;;;;;;;;;;;47.077148;2.427775
173052;Cession à venir;null;14, boulevard Chasseigne;86000;;;;;POITIERS;VIENNE;null;null;null;null;null;null;46.590367;0.34443
173089;Cession à venir;null;Zone Aéronautique Louis Bréguet;;;;;;;;;;;;;;48.779054;2.189282
173098;Cession à venir;null;52, Avenue de Saint-Cloud;78000;;;;;VERSAILLES;YVELINES;null;null;null;null;null;null;48.804266;2.137389
173130;Cession à venir;null;La Grange;3600;;;;;COMMENTRY;ALLIER;null;null;null;null;null;null;46.265574;2.739137
173159;Cession à venir;null;Parc de Rouelles;76620;;;;;LE HAVRE;SEINE-MARITIME;null;null;null;null;null;null;49.501407;0.099774
173163;Cession à venir;null;Place Jourdan;87100;;;;;LIMOGES;HAUTE-VIENNE;null;null;null;null;null;null;45.832143;1.263986
173164;Cession à venir;null;Caserne Beaupuy;87100;;;;;LIMOGES;HAUTE-VIENNE;null;null;null;null;null;null;45.840755;1.250068
173170;Cession à venir;null;31, avenue Baudin;87100;;;;;LIMOGES;HAUTE-VIENNE;Ministère de l'Action et des Comptes publics;null;null;null;null;null;45.825467;1.257677
173205;Cession à venir;null;Rue Maréchal leclerc;80400;;;;;EPPEVILLE;SOMME;Ministère de la Transition écologique et solidaire;null;null;null;null;null;49.741995;3.060796
173207;Cession à venir;null;Champ de Marchies;59144;;;;;GOMMEGNIES;NORD;null;null;null;null;null;null;50.285998;3.69936
173237;Cession à venir;null;Route de Guewenheim;68520;;;;;BURNHAUPT LE HAUT;HAUT-RHIN;null;null;null;null;null;null;47.742798;7.131854
173245;Cession à venir;null;Casserole;;;;;;;;;;;;;;46.577844;-1.048435
173248;Cession à venir;null;Terres des Epalus;3120;;;;;DROITURIER;ALLIER;Ministère de la Transition écologique et solidaire;null;null;null;null;null;46.214928;3.697206
173253;Cession à venir;null;713, route de Saint Julien;74100;;;;;ETREMBIERES;HAUTE-SAVOIE;Ministère de l'Action et des Comptes publics;null;null;null;null;null;46.175914;6.222927
173260;Cession à venir;null;Le Fort Saint Michel;62219;;;;;LONGUENESSE;PAS-DE-CALAIS;Ministère de la Transition écologique et solidaire;null;null;null;null;null;50.747236;2.265994
173261;Cession à venir;null;Forêt d'Aulnay Fisse Boiss;;;;;;;;;;;;;;45.964044;1.19393
173266;Cession à venir;null;Lieu-dit Rigole de l'Etat;;;;;;;;;;;;;;46.494201;4.017364
173270;Cession à venir;null;9, boulevard de l'Ouest;93340;;;;;LE RAINCY;SEINE-SAINT-DENIS;null;null;null;null;null;null;48.891195;2.511239
173272;Cession à venir;null;Rue Marronniers;91600;;;;;SAVIGNY SUR ORGE;ESSONNE;null;null;null;null;null;null;48.691981;2.350794
173274;Cession à venir;null;Domaine Présidentiel;91580;;;;;SOUZY LA BRICHE;ESSONNE;null;null;null;null;null;null;48.528485;2.148092
173288;Cession à venir;null;340, chemin de la Gardiole;83140;;;;;SIX FOURS LES PLAGES;VAR;null;null;null;null;null;null;43.070161;5.800385
173289;Cession à venir;null;9015, rue de Bédanne;76410;;;;;CLEON;SEINE-MARITIME;null;null;null;null;null;null;49.321803;1.054341
173297;Cession à venir;null;INALCO - 104/106, quai de Clichy;92110;;;;;CLICHY;HAUTS-DE-SEINE;null;null;null;null;null;null;48.910116;2.30361
173298;Cession à venir;null;22, allée Fernand Lindet;93390;;;;;CLICHY SOUS BOIS;SEINE-SAINT-DENIS;Ministère de la Transition écologique et solidaire;null;null;null;null;null;48.906836;2.54678
173302;Cession à venir;null;94, boulevard Desaix;83000;;;;;TOULON;VAR;null;null;null;null;null;null;43.1247;5.941979
173306;Cession à venir;null;Près du Pont 2 ème Canton;70500;;;;;GEVIGNEY ET MERCEY;HAUTE-SAÔNE;Ministère de la Transition écologique et solidaire;null;null;null;null;null;47.787539;5.939297
173317;Cession à venir;null;Rue 1 er Mai;92000;;;;;NANTERRE;HAUTS-DE-SEINE;null;null;null;null;null;null;48.911592;2.216507
173319;Cession à venir;null;Allée de la Danse;92000;;;;;NANTERRE;HAUTS-DE-SEINE;null;null;null;null;null;null;48.894832;2.221212
173322;Cession à venir;null;Les Claux;26340;;;;;AUREL;DRÔME;null;null;null;null;null;null;44.69922;5.263817
173331;Cession à venir;null;26, rue de Lieutenant Colonel Driant;;;;;;;;;;;;;;46.665439;-1.403113
173332;Cession à venir;null;16, avenue des Alpes;74300;;;;;CLUSES;HAUTE-SAVOIE;null;null;null;null;null;null;46.067503;6.579503
173336;Cession à venir;null;61B, avenue Paul Doumer;;;;;;;;;;;;;;48.859985;2.28051
173337;Cession à venir;null;A 75;12230;;;;;LA COUVERTOIRADE;AVEYRON;Ministère de la Transition écologique et solidaire;null;null;null;null;null;43.912847;3.316201
173345;Cession à venir;null;87-89, rue du Parc;93130;;;;;NOISY LE SEC;SEINE-SAINT-DENIS;null;null;null;null;null;null;48.889825;2.44572
173349;Cession à venir;null;Avenue Paul Herbe;92390;;;;;VILLENEUVE LA GARENNE;HAUTS-DE-SEINE;null;null;null;null;null;null;48.939899;2.325871
173351;Cession à venir;null;Quai Alfred Sisley;92390;;;;;VILLENEUVE LA GARENNE;HAUTS-DE-SEINE;null;null;null;null;null;null;48.93878;2.335362
173354;Cession à venir;null;147 à 151 bis, avenue de la République;93110;;;;;ROSNY-SOUS-BOIS;SEINE-SAINT-DENIS;null;null;null;null;null;null;48.866785;2.484256
173356;Cession à venir;null;32, chemin de Montreuil;93110;;;;;ROSNY-SOUS-BOIS;SEINE-SAINT-DENIS;null;null;null;null;null;null;48.885172;2.469772
173360;Cession à venir;null;99, avenue du Général de Gaulle;;;;;;;;;;;;;;4.939629;-52.328092
173365;Cession à venir;null;Fort de l'Est;;;;;;;;;;;;;;48.930215;2.3676
173380;Cession à venir;null;Avenue de la République;94320;;;;;THIAIS;VAL-DE-MARNE;Ministère de la Transition écologique et solidaire;null;null;null;null;null;48.769555;2.395603
173384;Cession à venir;null;25, Boulevard de la République;6240;;;;;BEAUSOLEIL;ALPES-MARITIMES;null;null;null;null;null;null;43.742849;7.425045
173385;Cession à venir;null;Quai Voltaire;;;;;;;;;;;;;;48.858874;2.330986
173389;Cession à venir;ESPACE NATUREL;Route de Pontoise;;;;;;;;;;;;;;48.946755;2.206293
173393;Cession à venir;null;Rue de Pontoise;;;;;;;;;;;;;;49.417769;2.087686
173395;Cession à venir;null;Carrefour place Lénine;;;;;;;;;;;;;;48.812336;2.510383
173396;Cession à venir;null;Magdelaine;82200;;;;;MOISSAC;TARN-ET-GARONNE;null;null;null;null;null;null;44.104472;1.084979
173408;Cession à venir;null;6, rue des Bateliers;57950;;;;;MONTIGNY LES METZ;MOSELLE;Ministère de la Transition écologique et solidaire;null;null;null;null;null;49.105989;6.149131
173410;Cession à venir;null;3, rue des Grives;95160;;;;;MONTMORENCY;VAL-D'OISE;null;null;null;null;null;null;48.984512;2.310156
173417;Cession à venir;null;Parties périphériques du Fort;95160;;;;;MONTMORENCY;VAL-D'OISE;null;null;null;null;null;null;48.998092;2.322816
173419;Cession à venir;null;Avenue Jean Mermoz;34070;;;;;MONTPELLIER;HÉRAULT;Ministère de l'Éducation nationale;null;null;null;null;null;43.613601;3.887559
173426;Cession à venir;null;Boulevard à Hayem;26200;;;;;SAINT PRIX;VAL-D'OISE;null;null;null;null;null;null;49.012714;2.281531
173428;Cession à venir;null;Remise de Gonesse;95400;;;;;VILLIERS LE BEL;VAL-D'OISE;Ministère de la Transition écologique et solidaire;null;null;null;null;null;49.007046;2.383324
173988;Cession à venir;null;15, cité Kermarquer;22740;;;;;LEZARDRIEUX;CÔTES D'ARMOR;null;null;null;null;null;null;48.779295;-3.116278
174111;Cession à venir;null;AH 22;14280;;;;;SAINT CONTEST;CALVADOS;null;null;null;null;null;null;49.212865;-0.401537
174179;Cession à venir;null;15D, rue Rivotte;25000;;;;;BESANÇON;DOUBS;Ministère de la Justice;null;null;null;null;null;47.235637;6.032553
174219;Cession à venir;null;Fôret de Dreuille;3430;;;;;COSNE D'ALLIER;ALLIER;null;null;null;null;null;null;46.475255;2.864785
174221;Cession à venir;ESPACE NATUREL;null;27320;;;;;MARCILLY LA CAMPAGNE;EURE;null;null;null;null;null;null;48.833705;1.200263
174268;Cession à venir;null;Lande de Laurion;44590;;;;;DERVAL;LOIRE-ATLANTIQUE;Ministère de la Transition écologique et solidaire;null;null;null;null;null;47.668207;-1.667066
174422;Cession à venir;null;233, rue Guglielmo Marconi;;;;;;;;;;;;;;43.611522;3.911758
174423;Cession à venir;null;Carrefour de la Lyre;;;;;;;;;;;;;;47.742923;0.393042
174427;Cession à venir;null;9, avenue de Lérida;9000;;;;;FOIX;ARIÈGE;null;null;null;null;null;null;42.964513;1.602752
174532;Cession à venir;null;175 bis, rue du Dronckaert;59223;;;;;RONCQ;NORD;null;null;null;null;null;null;50.733974;3.12673
174534;Cession à venir;null;Le Pied de Boeuf;;;;;;;;;;;;;;43.420767;6.051081
174620;Cession à venir;null;Les prés de Juvigny;;;;;;;;;;;;;;48.996322;4.288748
174738;Cession à venir;BUREAU;12, avenue Charles de Gaulle;82000;;;;;MONTAUBAN;TARN-ET-GARONNE;null;null;null;null;null;null;44.01193;1.363708
174750;Cession à venir;null;395, avenue Pierre Brossolette;83300;;;;;DRAGUIGNAN;VAR;null;null;null;null;null;null;43.532623;6.450884
174814;Cession à venir;LOGEMENT;11, boulevard de l'Envigne;86100;;;;;CHATELLERAULT;VIENNE;null;null;null;null;null;null;46.814932;0.530596
174815;Cession à venir;LOGEMENT;9, boulevard de l'Envigne;86100;;;;;CHATELLERAULT;VIENNE;null;null;null;null;null;null;46.814961;0.530377
174816;Cession à venir;LOGEMENT;44, boulevard Blossac;86100;;;;;CHATELLERAULT;VIENNE;Ministère de la Transition écologique et solidaire;null;null;null;null;null;46.816597;0.545832
174831;Cession à venir;null;Les Groseillers;70000;;;;;FROTEY LES VESOUL;HAUTE-SAÔNE;null;null;null;null;null;null;47.623757;6.190375
174835;Cession à venir;null;Rue Maurice Berteaux;91120;;;;;PALAISEAU;ESSONNE;null;null;null;null;null;null;48.719176;2.24307
174891;Cession à venir;null;Avenue du Colonel Fabien;97400;;;;;SAINT-DENIS;SEINE-SAINT-DENIS;null;null;null;null;null;null;48.945372;2.351468
174914;Cession à venir;null;Route de Taissy;51350;;;;;CORMONTREUIL;MARNE;Ministère de la Transition écologique et solidaire;null;null;null;null;null;49.22031;4.063247
174988;Cession à venir;null;Le Chemin du Moulin;62390;;;;;BUIRE AU BOIS;PAS-DE-CALAIS;Ministère de la Transition écologique et solidaire;null;null;null;null;null;50.269701;2.147331
175055;Cession à venir;null;124, rue Mont Gargan;76000;;;;;ROUEN;SEINE-MARITIME;Ministère de la Transition écologique et solidaire;null;null;null;null;null;49.436211;1.112264
175065;Cession à venir;null;Peyrouse Ouest;30320;;;;;MARGUERITTES;GARD;null;null;null;null;null;null;43.860864;4.432967
175123;Cession à venir;null;L'Ilot;;;;;;;;;;;;;;46.78709;-2.078153
175127;Cession à venir;null;Les Hautes Maries;28260;;;;;SOREL MOUSSEL;EURE-ET-LOIR;null;null;null;null;null;null;48.840693;1.384274
175138;Cession à venir;null;Avenue de Verdun;20167;;;;;AJACCIO;CORSE-DU-SUD;null;null;null;null;null;null;41.921189;8.730335
175139;Cession à venir;null;Pietraggione Casemate de Santa Giulia;20137;;;;;PORTO VECCHIO;CORSE-DU-SUD;null;null;null;null;null;null;41.535566;9.278917
175140;Cession à venir;null;Pavellone Casemate d'Aréna;20137;;;;;PORTO VECCHIO;CORSE-DU-SUD;null;null;null;null;null;null;41.59999;9.333558
175149;Cession à venir;null;Foncier FNAFU;;;;;;;;;;;;;;48.279604;0.61822
175202;Cession à venir;null;151, rue de Paris;2100;;;;;SAINT QUENTIN;AISNE;Ministère de la Transition écologique et solidaire;null;null;null;null;null;49.837919;3.27121
175206;Cession à venir;null;Proximité A75;48130;;;;;SAINT SAUVEUR DE PEYRE;LOZÈRE;null;null;null;null;null;null;44.644643;3.281712
175213;Cession à venir;null;65, rue d'Allschwill;68220;;;;;HEGENHEIM;HAUT-RHIN;null;null;null;null;null;null;47.555703;7.53651
175224;Cession à venir;null;La Pierre Frite;28130;;;;;MAINTENON;EURE-ET-LOIR;Ministère de la Transition écologique et solidaire;null;null;null;null;null;48.595361;1.591355
175225;Cession à venir;null;Au Poirier Piqut;55500;;;;;MAULAN;MEUSE;Ministère de la Transition écologique et solidaire;null;null;null;null;null;48.656723;5.250392
175274;Cession à venir;null;Avenue des Arts;33600;;;;;PESSAC;GIRONDE;Ministère de l’Enseignement supérieur, de la Recherche et de l’Innovation;null;null;null;null;null;44.797175;-0.611069
175284;Cession à venir;null;5, quai Zorn;67000;;;;;STRASBOURG;BAS-RHIN;null;null;null;null;null;null;48.58794;7.759281
175286;Cession à venir;null;Bâtiment 1;;;;;;;;;;;;;;46.653692;-0.89338
175301;Cession à venir;null;170 bis, rue de l' Exode;50000;;;;;SAINT LO;MANCHE;null;null;null;null;null;null;49.106023;-1.088607
175313;Cession à venir;null;Chemin de la Rose à la Grave;13000;;;;;MARSEILLE;BOUCHES-DU-RHÔNE;Ministère de la Transition écologique et solidaire;null;null;null;null;null;43.2804;5.3806
175396;Cession à venir;BATIMENT TECHNIQUE;2, boulevard des Mobiles;7000;;;;;PRIVAS;ARDÈHE;null;null;null;null;null;null;44.73499;4.601448
175469;Cession à venir;null;19, boulevard Dubus;27300;;;;;BERNAY;EURE;null;null;null;null;null;null;49.087561;0.59687
175489;Cession à venir;null;ENSCM - Institut de Chimie;;;;;;;;;;;;;;43.966462;3.865173
175490;Cession à venir;null;276, rue de la Galéra;;;;;;;;;;;;;;43.638176;3.838469
175491;Cession à venir;null;104, rue de la Galéra;;;;;;;;;;;;;;43.637252;3.836996
175492;Cession à venir;null;220, rue de la Galéra;;;;;;;;;;;;;;43.637921;3.838067
175493;Cession à venir;null;305, rue d'Argencourt;34070;;;;;MONTPELLIER;HÉRAULT;null;null;null;null;null;null;43.613083;3.885554
175495;Cession à venir;null;2, rue Georges Boutin;44400;;;;;REZE;LOIRE-ATLANTIQUE;null;null;null;null;null;null;47.190557;-1.56556
175499;Cession à venir;null;Tour Mercure;;;;;;;;;;;;;;46.831004;-0.883074
175501;Cession à venir;null;Parc;59320;;;;;SEQUEDIN;NORD;null;null;null;null;null;null;50.626192;2.984481
175518;Cession à venir;BUREAU;Roquevignon;;;;;;;;;;;;;;43.662881;6.914595
175524;Cession à venir;null;Place Denfert Rochereau;32000;;;;;AUCH;GERS;Ministère du Travail;null;null;null;null;null;43.647433;0.583825
175528;Cession à venir;null;Rue la Tuilerie;;;;;;;;;;;;;;48.58729;6.918948
175540;Cession à venir;null;55, avenue Emmanuel Baudoin;;;;;;;;;;;;;;43.657879;6.914602
175553;Cession à venir;null;Impasse Louis Blériot;35730;;;;;PLEURTUIT;ILLE-ET-VILAINE;null;null;null;null;null;null;48.581286;-2.065986
175596;Cession à venir;null;60, rue Notre Dame;22000;;;;;SAINT BRIEUC;CÔTES D'ARMOR;null;null;null;null;null;null;48.51635;-2.77166
175627;Cession à venir;null;Le Pré Blanc;22460;;;;;DOLO;CÔTES D'ARMOR;null;null;null;null;null;null;48.278474;-2.84231
175681;Cession à venir;ESPACE AMENAGE;Canaouera;32600;;;;;L'ISLE JOURDAIN;GERS;null;null;null;null;null;null;43.60027;1.107262
175697;Cession à venir;null;154, rue Cursat;74100;;;;;ANNEMASSE;HAUTE-SAVOIE;null;null;null;null;null;null;46.195627;6.233548
175750;Cession à venir;null;Rue de Chennevières;78760;;;;;JOUARS PONTCHARTRAIN;YVELINES;Ministère de la Transition écologique et solidaire;null;null;null;null;null;48.79653;1.908861
175751;Cession à venir;null;Rue des Terres Fortes;28400;;;;;NOGENT LE ROTROU;EURE-ET-LOIR;null;null;null;null;null;null;48.327806;0.802301
175752;Cession à venir;null;Avenue 2B du Général Foy;49100;;;;;ANGERS;MAINE-ET-LOIRE;null;null;null;null;null;null;47.478838;-0.530468
175758;Cession à venir;null;40, et 40 bis rue Deschamp;;;;;;;;;;;;;;49.032028;1.57588
175766;Cession à venir;null;Bois de Morillas;77580;;;;;MAISONCELLES EN BRIE;SEINE-ET-MARNE;Ministère de la Transition écologique et solidaire;null;null;null;null;null;48.866947;2.992028
175767;Cession à venir;null;13, rue Texier Gallas;28140;;;;;ORGERES EN BEAUCE;EURE-ET-LOIR;null;null;null;null;null;null;48.151614;1.682564
175773;Cession à venir;ESPACE NATUREL;Les Grands Champs;;;;;;;;;;;;;;44.304623;5.840158
175847;Cession à venir;null;Chaude Epée;51000;;;;;CHALONS EN CHAMPAGNE;MARNE;null;null;null;null;null;null;48.956391;4.364203
175850;Cession à venir;null;38, rue de Stalingrad;94110;;;;;ARCUEIL;VAL-DE-MARNE;Ministère de la Transition écologique et solidaire;null;null;null;null;null;48.810596;2.338883
175851;Cession à venir;null;Forge Haute - 110, 114, 116, rue Pasteur;36120;;;;;ARDENTES;INDRE;null;null;null;null;null;null;46.745538;1.813861
175853;Cession à venir;null;L'Usine;;;;;;;;;;;;;;49.696406;4.772469
175904;Cession à venir;null;Les Beauvoyes;77230;;;;;SAINT MARD;AISNE;null;null;null;null;null;null;49.040878;2.699288
175905;Cession à venir;null;Carrières de la Vallée;77230;;;;;SAINT MARD;AISNE;null;null;null;null;null;null;49.377302;3.584251
175907;Cession à venir;null;Dessous les Carrières;77230;;;;;SAINT MARD;AISNE;null;null;null;null;null;null;49.034096;2.692101
175908;Cession à venir;null;La Tête Montagne;77230;;;;;SAINT MARD;AISNE;null;null;null;null;null;null;42.668813;2.615082
175909;Cession à venir;null;Le Ravin de la Houille;77230;;;;;SAINT MARD;AISNE;null;null;null;null;null;null;49.041301;2.706029
176033;Cession à venir;null;40, avenue d'Iéna;75000;;;;;PARIS;PARIS;null;null;null;null;null;null;48.866504;2.295252
176042;Cession à venir;null;2, place de Verdun;17000;;;;;LA ROCHELLE;CHARENTE-MARITIME;null;null;null;null;null;null;46.162844;-1.152594
176062;Cession à venir;null;La Grande Pièce;;;;;;;;;;;;;;45.892343;1.293691
176065;Cession à venir;null;Vialle;;;;;;;;;;;;;;45.841876;1.531503
176204;Cession à venir;null;21, rue de Moulins;57160;;;;;SCY CHAZELLES;MOSELLE;Ministère de la Culture;null;null;null;null;null;49.109179;6.1085
176206;Cession à venir;null;Route de Nancy;57200;;;;;SARREGUEMINES;MOSELLE;Ministère de la Transition écologique et solidaire;null;null;null;null;null;49.100574;7.063397
176264;Cession à venir;null;15, rue de Chapoly;69290;;;;;SAINT GENIS LES OLLIERES;RHÔNE;null;null;null;null;null;null;45.765979;4.728849
176267;Cession à venir;null;Rue Roger Salengro;69100;;;;;VILLEURBANNE;RHÔNE;Ministère de la Transition écologique et solidaire;null;null;null;null;null;45.778695;4.87985
176290;Cession à venir;null;RD Menant à l'Allemant;51120;;;;;MONDEMENT MONTGIVROUX;MARNE;null;null;null;null;null;null;48.787159;3.777184
176292;Cession à venir;null;Rue de la Digue;;;;;;;;;;;;;;43.58293;1.427972
176306;Cession à venir;null;Rue W. Rousseau;91210;;;;;DRAVEIL;ESSONNE;null;null;null;null;null;null;48.685776;2.43069
176309;Cession à venir;null;501, rue Métairie de Saysset;34070;;;;;MONTPELLIER;HÉRAULT;null;null;null;null;null;null;43.590538;3.894189
176328;Cession à venir;null;7, allée du Promontoire;93160;;;;;NOISY LE GRAND;SEINE-SAINT-DENIS;null;null;null;null;null;null;48.841561;2.573396
176329;Cession à venir;null;7, allée du Promontoire;93160;;;;;NOISY LE GRAND;SEINE-SAINT-DENIS;null;null;null;null;null;null;48.841561;2.573396
176383;Cession à venir;ESPACE AMENAGE;Gare le Coup - Voie Côte Chapiron;54200;;;;;BICQUELEY;MEURTHE-ET-MOSELLE;null;null;null;null;null;null;48.624183;5.9053
176386;Cession à venir;null;15, rue Gustave Sindou;46000;;;;;CAHORS;LOT;Ministère de la Transition écologique et solidaire;null;null;null;null;null;44.444157;1.435169
176612;Cession à venir;null;Combe Rousse;;;;;;;;;;;;;;44.941698;1.621927
176613;Cession à venir;null;Délaissés RN 106;30360;;;;;NERS;GARD;Ministère de la Transition écologique et solidaire;null;null;null;null;null;44.024609;4.157433
176614;Cession à venir;null;Île Cordée;38360;;;;;NOYAREY;ISÈRE;Ministère de la Transition écologique et solidaire;null;null;null;null;null;45.241178;5.645742
176618;Cession à venir;null;Le grand Champ;38760;;;;;SAINT PAUL DE VARCES;ISÈRE;Ministère de la Transition écologique et solidaire;null;null;null;null;null;45.068292;5.648422
176739;Cession à venir;null;6-8, rue Carnot;;;;;;;;;;;;;;48.955002;4.365467
176749;Cession à venir;null;30, rue Léon Bourgeois;69500;;;;;BRON;RHÔNE;Ministère de l'Agriculture et de l'Alimentation;null;null;null;null;null;45.725984;4.899287
176815;Cession à venir;null;La Gâtine;;;;;;;;;;;;;;47.247896;-1.319197
176943;Cession à venir;null;La Fosse Neuve Prairie;86400;;;;;CIVRAY;VIENNE;Ministère de l'Agriculture et de l'Alimentation;null;null;null;null;null;46.137385;0.305626
177291;Cession à venir;null;Rue de Marlborough;62280;;;;;SAINT-MARTIN BOULOGNE;PAS-DE-CALAIS;null;null;null;null;null;null;50.734578;1.626473
177297;Cession à venir;null;Caserne Gley;;;;;;;;;;;;;;44.249809;-0.150426
177322;Cession à venir;null;Pavé du Moulin;59160;;;;;LILLE;NORD;null;null;null;null;null;null;50.64471;2.985339
177401;Cession à venir;null;Route de Tarbes;65380;;;;;AZEREIX;HAUTES-PYRÉNÉES;Ministère de la Transition écologique et solidaire;null;null;null;null;null;43.211707;-0.004614
177644;Cession à venir;BUREAU;305, avenue des Landiers;73000;;;;;CHAMBERY;SAVOIE;Ministère de la Transition écologique et solidaire;null;null;null;null;null;45.587135;5.906625
177862;Cession à venir;null;Lou Aumedes;48800;;;;;POURCHARESSES;LOZÈRE;null;null;null;null;null;null;44.451481;3.894222
177894;Cession à venir;ESPACE AMENAGE;4, place d'Arros;57050;;;;;METZ;MOSELLE;null;null;null;null;null;null;49.125307;6.175888
178064;Cession à venir;LOGEMENT;DITSCHWEILER;57800;;;;;COCHEREN;MOSELLE;null;null;null;null;null;null;49.147592;6.841902
178172;Cession à venir;null;La Plane;;;;;;;;;;;;;;43.842456;5.032197
178261;Cession à venir;null;Barreau d'Athis Mons;91200;;;;;ATHIS MONS;ESSONNE;null;null;null;null;null;null;48.707946;2.394311
178264;Cession à venir;null;Bois du Marot;62700;;;;;PALINGES;SAÔNE-ET-LOIRE;Ministère de la Transition écologique et solidaire;null;null;null;null;null;46.577486;4.215725
178271;Cession à venir;null;null;57970;;;;;KOENIGSMACKER;MOSELLE;null;null;null;null;null;null;49.392698;6.275582
178294;Cession à venir;null;Chemin du Grand Bois;30900;;;;;NIMES;GARD;Ministère de la Transition écologique et solidaire;null;null;null;null;null;43.847997;4.315786
178296;Cession à venir;null;Puech du Buis Est;30900;;;;;NIMES;GARD;Ministère de la Transition écologique et solidaire;null;null;null;null;null;43.842501;4.32772
178432;Cession à venir;null;La Poterie;62126;;;;;WIMILLE;PAS-DE-CALAIS;null;null;null;null;null;null;50.74878;1.618988
178484;Cession à venir;SUPPORT DE PARCELLE;rue du 8 Mai 1945;73000;;;;;BARBERAZ;SAVOIE;Ministère de la Transition écologique et solidaire;null;null;null;null;null;45.563899;5.947392
178576;Cession à venir;null;43, rue du 13 Octobre 1918;2000;;;;;LAON;AISNE;null;null;null;null;null;null;49.565011;3.610434
178596;Cession à venir;null;25, cours du Docteur Jacques Noël;33590;;;;;SAINT VIVIEN DE MEDOC;GIRONDE;null;null;null;null;null;null;45.429423;-1.035103
178839;Cession à venir;null;Pré Maule;71380;;;;;EPERVANS;SAÔNE-ET-LOIRE;Ministère de la Transition écologique et solidaire;null;null;null;null;null;46.749899;4.900934
179074;Cession à venir;null;6, rue Ernest Thierry;93300;;;;;AUBERVILLIERS;SEINE-SAINT-DENIS;null;null;null;null;null;null;48.917165;2.405723
179245;Cession à venir;null;Grenouillet;;;;;;;;;;;;;;4.91242;-52.457653
179246;Cession à venir;null;Le Croquet - les Vingt Deux;;;;;;;;;;;;;;50.882113;1.665332
179619;Cession à venir;null;LA GARENNE;38070;;;;;SAINT-QUENTIN-FALLAVIER;ISÈRE;null;null;null;null;null;null;45.645963;5.104634
179623;Cession à venir;null;Les Bruyères B3194;;;;;;;;;;;;;;45.316548;1.759585
179625;Cession à venir;null;81, rue Bernard Palissy;62750;;;;;LOOS EN GOHELLE;PAS-DE-CALAIS;null;null;null;null;null;null;50.449144;2.797301
179628;Cession à venir;null;Lieu-dit Miseerbaum;57800;;;;;FREYMING-MERLEBACH;MOSELLE;null;null;null;null;null;null;49.154016;6.81081
179642;Cession à venir;null;Le Clair Boudin;62370;;;;;SAINT FOLQUIN;PAS-DE-CALAIS;null;null;null;null;null;null;50.948365;2.122927
179644;Cession à venir;null;26, boulevard Carnot;42600;;;;;MONTBRISON;LOIRE;null;null;null;null;null;null;45.607957;4.068171
179656;Cession à venir;null;59, rue Gambetta;78400;;;;;CHATOU;YVELINES;Ministère de la Transition écologique et solidaire;null;null;null;null;null;48.898692;2.165692
179757;Cession à venir;null;31, avenue Hamecher;82000;;;;;MONTAUBAN;TARN-ET-GARONNE;null;null;null;null;null;null;44.008773;1.343768
179888;Cession à venir;null;70, boulevard Saint Quentin;80000;;;;;AMIENS;SOMME;Ministère de l'Éducation nationale;null;null;null;null;null;49.879027;2.296465
180123;Cession à venir;null;Rue de Trévise;59160;;;;;LILLE;NORD;null;null;null;null;null;null;50.621166;3.073487
180124;Cession à venir;null;Les Liondards;63110;;;;;BEAUMONT;PUY-DE-DÔME;Ministère de la Transition écologique et solidaire;null;null;null;null;null;45.759216;3.088013
180125;Cession à venir;null;81-83, rue d'Alger;59100;;;;;ROUBAIX;NORD;null;null;null;null;null;null;50.697301;3.194842
180126;Cession à venir;null;Rue de Maubeuge;;;;;;;;;;;;;;48.877867;2.344225
180439;Cession à venir;null;Guillotine;14310;;;;;TRACY BOCAGE;CALAVDOS;null;null;null;null;null;null;49.071992;-0.692307
180441;Cession à venir;null;Etablissement LCL PION;;;;;;;;;;;;;;-21.363937;55.57902
180443;Cession à venir;null;Haut de la Donchière;8130;;;;;ATTIGNY;ARDENNES;Ministère de la Transition écologique et solidaire;null;null;null;null;null;49.474286;4.591139
180553;Cession à venir;ESPACE AMENAGE;La Maladière;;;;;;;;;;;;;;45.457671;4.758463
180554;Cession à venir;null;2, rue de l'Arsenal;59380;;;;;BERGUES;NORD;null;null;null;null;null;null;50.96962;2.428165
180575;Cession à venir;null;Les Vallières;74150;;;;;CREMPIGNY BONNEGUETE;HAUTE-SAVOIE;null;null;null;null;null;null;45.951317;5.902744
180686;Cession à venir;null;37, avenue Charles de Gaulle;91260;;;;;JUVISY SUR ORGE;ESSONNE;null;null;null;null;null;null;48.694759;2.379749
180691;Cession à venir;null;98, route de Montpellier;34200;;;;;SETE;HÉRAULT;Ministère de la Transition écologique et solidaire;null;null;null;null;null;43.39568;3.67852
180824;Cession à venir;null;Ile Sainte Marguerite - Sentier du Bateguier;;;;;;;;;;;;;;-20.911151;55.594209
180830;Cession à venir;null;Voie Ouvrage de Brehain la Ville;54190;;;;;BREHAIN LA VILLE;MEURTHE-ET-MOSELLE;null;null;null;null;null;null;49.441025;5.886887
180883;Cession à venir;null;Rue de la Coulotte;83140;;;;;GRAND;VOSGES;Ministère de la Culture;null;null;null;null;null;48.384633;5.484943
180906;Cession à venir;null;5, avenue de Beauvoir;91000;;;;;EVRY;ESSONNE;null;null;null;null;null;null;48.628922;2.458084
180940;Cession à venir;null;Lieu-dit le Tonval;60370;;;;;HERMES;OISE;Office national des Forêts;null;null;null;null;null;49.377232;2.262869
181005;Cession à venir;ESPACE AMENAGE;Chemin Vieux;69500;;;;;BRON;RHÔNE;Ministère de la Transition écologique et solidaire;null;null;null;null;null;45.731489;4.918417
181111;Cession à venir;null;6, rue Carnot;27110;;;;;LE NEUBOURG;EURE;Ministère de l'Action et des Comptes publics;null;null;null;null;null;49.150293;0.907575
181224;Cession à venir;null;A 75;;;;;;;;;;;;;;48.868391;2.352825
181264;Cession à venir;null;Le Port;69700;;;;;GIVORS;RHÔNE;Ministère de la Transition écologique et solidaire;null;null;null;null;null;45.576628;4.787745
181373;Cession à venir;null;5, rue Decaens;14800;;;;;DEAUVILLE;CALVADOS;Ministère de la Transition écologique et solidaire;null;null;null;null;null;49.360043;0.085162
182170;Cession à venir;null;Impasse de l'Economique;3150;;;;;VARENNES SUR ALLIER;ALLIER;Ministère de la Transition écologique et solidaire;null;null;null;null;null;46.315935;3.392709
182393;Cession à venir;null;Sortie A 10 Orsay échangeur Courtaboeuf;;;;;;;;;;;;;;48.69576;2.190479
182556;Cession à venir;BATIMENT TECHNIQUE;Route de la gare de la Joux;39300;;;;;SUPT;JURA;Ministère de l'Agriculture et de l'Alimentation;null;null;null;null;null;46.848773;5.997552
182565;Cession à venir;null;Chemin de la Ferté sous Jouarre;;;;;;;;;;;;;;48.958688;3.12515
183283;Cession à venir;null;Les Bonnets;;;;;;;;;;;;;;45.087796;5.56821
183984;Cession à venir;null;Le Gouffre;28630;;;;;VER LES CHARTRES;EURE-ET-LOIR;null;null;null;null;null;null;48.385021;1.477708
184267;Cession à venir;null;Caserne Gudin;;;;;;;;;;;;;;44.249809;-0.150426
184283;Cession à venir;null;Rouval;76370;;;;;ANCOURT;SEINE-MARITIME;Ministère de l'Agriculture et de l'Alimentation;null;null;null;null;null;49.909657;1.183176
184297;Cession à venir;null;L'ile des Loups;45420;;;;;BONNY-SUR-LOIRE;LOIRET;null;null;null;null;null;null;47.578242;2.81277
184450;Cession à venir;null;MF les Acres;76220;;;;;BEAUVOIR EN LYONS;SEINE-MARITIME;Ministère de l'Agriculture et de l'Alimentation;null;null;null;null;null;49.498149;1.574896
184686;Cession à venir;null;Route de la Combe;5800;;;;;ASPRES LES CORPS;HAUTES ALPES;Ministère de la Transition écologique et solidaire;null;null;null;null;null;44.80034;5.980445
184803;Cession à venir;null;Fort Richelieu;34200;;;;;SETE;HÉRAULT;null;null;null;null;null;null;43.398898;3.699213
184805;Cession à venir;null;Route de Meurchin;62220;;;;;CARVIN;PAS-DE-CALAIS;Ministère de la Transition écologique et solidaire;null;null;null;null;null;50.498595;2.941502
185094;Cession à venir;null;Lorette;69230;;;;;SAINT GENIS LAVAL;RHÔNE;Ministère de la Transition écologique et solidaire;null;null;null;null;null;45.705965;4.791775
185287;Cession à venir;null;Rue du Chêne Noblet;35250;;;;;CHEVAIGNE;ILLE-ET-VILAINE;Ministère de la Transition écologique et solidaire;null;null;null;null;null;48.213135;-1.626998
185465;Cession à venir;null;Lieu-dit Ouvrage du Chanot;54200;;;;;PIERRE LA TREICHE;MEURTHE-ET-MOSELLE;null;null;null;null;null;null;48.643103;5.933751
185568;Cession à venir;ESPACE NATUREL;Le Chêne Rond;91460;;;;;MARCOUSSIS;ESSONNE;null;null;null;null;null;null;48.639364;2.213881
185787;Cession à venir;null;Rue Barjot;36300;;;;;LE BLANC;INDRE;null;null;null;null;null;null;46.628289;1.074514
185876;Cession à venir;null;Chemin rue de Bellefontaine;;;;;;;;;;;;;;47.567523;5.436662
186218;Cession à venir;null;Ancienne route Royale;30130;;;;;PONT SAINT ESPRIT;GARD;Ministère de la Transition écologique et solidaire;null;null;null;null;null;44.245942;4.642217
186249;Cession à venir;null;11, avenue des Grenots;91150;;;;;ETAMPES;ESSONNE;null;null;null;null;null;null;48.451117;2.158743
186898;Cession à venir;null;23, rue Gustave Morizot;21400;;;;;CHATILLON SUR SEINE;CÔTE D'OR;null;null;null;null;null;null;47.860639;4.570552
186911;Cession à venir;null;Sera Haut, Racate Bas, Croix, Saule;;;;;;;;;;;;;;49.583914;4.343863
187106;Cession à venir;BUREAU;10, place Hélène Cyminski;8300;;;;;RETHEL;ARDENNES;Ministère de l'Action et des Comptes publics;null;null;null;null;null;49.510428;4.367512
187519;Cession à venir;null;Avenue des Naudières;44800;;;;;SAINT HERBLAIN;LOIRE-ATLANTIQUE;null;null;null;null;null;null;47.240126;-1.603734
187910;Cession à venir;null;Maison Forestière de Ravigny;55220;;;;;SOUILLY;MEUSE;Ministère de l'Agriculture et de l'Alimentation;null;null;null;null;null;49.028599;5.336486
188674;Cession à venir;null;Saint-Léon-Pas d'Albi;81190;;;;;MOULARES;TARN;null;null;null;null;null;null;44.090311;2.301432
329458;Cession à venir;null;Combe Antoine;6420;;;;;AUTRANS;ISÈRE;null;null;null;null;null;null;45.138377;5.534059
454323;Cession à venir;null;Les Grandes Rivières;17460;;;;;VARZAY;CHARENTE-MARITIME;Ministère de la Transition écologique et solidaire;null;null;null;null;null;45.711874;-0.729292
502211;Cession à venir;SUPPORT DE PARCELLE;Lieu-dit les Cueilles;;;;;;;;;;;;;;47.060981;2.379393
503002;Cession à venir;null;La ferme de Philiomel;62190;;;;;LILLERS;PAS-DE-CALAIS;null;null;null;null;null;null;50.558029;2.465201
687169;Cession à venir;ESPACE AMENAGE;185 bis, rue Henri Champion;72000;;;;;LE MANS;SARTHE;null;null;null;null;null;null;47.983826;0.231114
691306;Cession à venir;LOGEMENT;4681, route de la Verne;;;;;;;;;;;;;;45.237681;5.206829
694449;Cession à venir;null;Salvaza;11000;;;;;CARCASSONNE;AUDE;Ministère de la Transition écologique et solidaire;null;null;null;null;null;43.213879;2.306044
706836;Cession à venir;null;Le Paradis;51120;;;;;SEZANNE;MARNE;Ministère de la Transition écologique et solidaire;null;null;null;null;null;48.724541;3.707938
707504;Cession à venir;null;La Quintarde;46090;;;;;FLAUJAC POUJOLS;LOT;null;null;null;null;null;null;44.407456;1.469925
707925;Cession à venir;null;Route D 104 - Maison forestière de Gros Bois;77300;;;;;FONTAINEBLEAU;SEINE-ET-MARNE;null;null;null;null;null;null;48.947819;2.13497
707930;Cession à venir;null;Val Profond;91570;;;;;BIEVRES;ESSONNE;null;null;null;null;null;null;48.761741;2.225286
707931;Cession à venir;null;Croix de la Justice;37130;;;;;CHATEAUFORT;YVELINES;null;null;null;null;null;null;48.733064;2.097457
707932;Cession à venir;null;Freycinet;26780;;;;;CHATEAUNEUF DU RHONE;DRÔME;null;null;null;null;null;null;44.513298;4.744421
707940;Cession à venir;null;Le Pont Rouge;2880;;;;;MARGIVAL;AISNE;Ministère de la Transition écologique et solidaire;null;null;null;null;null;49.424452;3.407807
707951;Cession à venir;null;79, avenue du Maréchal de Lattre de Tassigny;94000;;;;;CRETEIL;VAL-DE-MARNE;Ministère de la Transition écologique et solidaire;null;null;null;null;null;48.800671;2.450239
707958;Cession à venir;SUPPORT DE PARCELLE;Depoterie;70230;;;;;CHASSEY LES MONTBOZON;HAUTE-SAÔNE;null;null;null;null;null;null;47.51022;6.33305
710426;Cession à venir;null;La Villette;42153;;;;;RIORGES;LOIRE;null;null;null;null;null;null;46.055887;4.051841
710428;Cession à venir;null;Les Jacquins;42590;;;;;NEULISE;LOIRE;null;null;null;null;null;null;45.88586;4.17772
710432;Cession à venir;null;117, rue sainte Cécile;13000;;;;;MARSEILLE;BOUCHES-DU-RHÔNE;null;null;null;null;null;null;43.288685;5.397017
715120;Cession à venir;null;Souleille de Mundet;9320;;;;;MASSAT;ARIÈGE;null;null;null;null;null;null;42.883834;1.35208
715121;Cession à venir;null;Bouillo Quartier;9320;;;;;MASSAT;ARIÈGE;null;null;null;null;null;null;;
715124;Cession à venir;null;10, rue de la Tour;15500;;;;;MASSIAC;CANTAL;Ministère de la Transition écologique et solidaire;null;null;null;null;null;45.249961;3.201864
786700;Cession à venir;null;58-62, boulevard Kellermann;28200;;;;;CHATEAUDUN;EURE-ET-LOIR;Ministère de la Défense;null;null;null;null;null;48.072168;1.344666
789163;Cession à venir;null;Place Granier;;;;;;;;;;;;;;48.087354;-1.621535
796155;Cession à venir;null;Maison forestière de Villebon Nouvelle;;;;;;;;;;;;;;43.504573;-1.504433
803853;Cession à venir;ESPACE AMENAGE;80, avenue de l'Arc de Triomphe;17100;;;;;SAINTES;CHARENTE-MARITIME;null;null;null;null;null;null;45.745603;-0.625806
825526;Cession à venir;SUPPORT DE PARCELLE;Rue Port Campionnet;71160;;;;;DIGOIN;SAÔNE-ET-LOIRE;Ministère de la Transition écologique et solidaire;null;null;null;null;null;46.482979;3.98704
829458;Cession à venir;null;null;86370;;;;;VIVONNE;VIENNE;null;null;null;null;null;null;46.429426;0.264687
887094;Cession à venir;LOGEMENT;5, rue des Escaliers;6430;;;;;LA BRIGUE;ALPES-MARITIMES;null;null;null;null;null;null;44.061801;7.616623
889569;Cession à venir;SUPPORT DE PARCELLE;Délaissés RN 106;81350;;;;;LA CALMETTE;GARD;Ministère de la Transition écologique et solidaire;null;null;null;null;null;44.03368;2.216012
901751;Cession à venir;null;Institut de biologie;;;;;;;;;;;;;;49.237668;1.168317
903861;Cession à venir;ESPACE NATUREL;Champ Fleuri à Val de Vignes;;;;;;;;;;;;;;44.949976;4.847805
903863;Cession à venir;null;259, Chemin du Molleron;38110;;;;;DOLOMIEU;ISÈRE;null;null;null;null;null;null;45.604698;5.491058
903864;Cession à venir;null;Le Pré Prairie Plénée Jugon;22640;;;;;PLENEE JUGON;CÔTES D'ARMOR;null;null;null;null;null;null;48.352552;-2.402192
904065;Cession à venir;null;41, rue des Oeillets;91600;;;;;SAVIGNY SUR ORGE;ESSONNE;null;null;null;null;null;null;48.681873;2.341073
908853;Cession à venir;null;Climat du Loup pendu;;;;;;;;;;;;;;48.994215;2.222112
908855;Cession à venir;null;390, boulevard Pasteur;59500;;;;;DOUAI;NORD;Ministère de la Justice;null;null;null;null;null;50.364382;3.072907
908964;Cession à venir;null;Boulevard de la Vendée;;;;;;;;;;;;;;47.954632;0.168556
911253;Cession à venir;null;Camplanier Nord;30900;;;;;NIMES;GARD;null;null;null;null;null;null;43.85257;4.321922
911335;Cession à venir;null;La Tuilerie;45200;;;;;AMILLY;LOIRET;null;null;null;null;null;null;47.968236;2.760334
927074;Cession à venir;LOGEMENT;Champ Nardin;25400;;;;;EXINCOURT;DOUBS;Ministère de la Transition écologique et solidaire;null;null;null;null;null;47.502014;6.833388
981623;Cession à venir;null;Rocourt;;;;;;;;;;;;;;50.380882;2.37744
981624;Cession à venir;null;151-155, rue de Paris;;;;;;;;;;;;;;50.63321;3.06817
981838;Cession à venir;null;Boulevard Albanès;;;;;;;;;;;;;;43.286068;5.441174
982094;Cession à venir;null;Le Pied de Boeuf;;;;;;;;;;;;;;43.420767;6.051081
982415;Cession à venir;null;1, chemin des écoliers;23420;;;;;MERINCHAL;CREUSE;null;null;null;null;null;null;45.916768;2.487745
982416;Cession à venir;null;235, rue du Docteur Rousseau;59660;;;;;MERVILLE;NORD;null;null;null;null;null;null;50.627289;2.643631
982420;Cession à venir;null;Route Patural de Baudillas;23320;;;;;SAINT VAURY;CREUSE;null;null;null;null;null;null;46.197909;1.773217
982521;Cession à venir;null;1, rue Gioachino Rossini;26000;;;;;VALENCE;DRÔME;null;null;null;null;null;null;44.931182;4.925781
982523;Cession à venir;null;Rue Champion;89660;;;;;CHATEL CENSOIR;YONNE;null;null;null;null;null;null;47.531635;3.633478
982525;Cession à venir;null;Prairie;26700;;;;;PIERRELATTE;DRÔME;null;null;null;null;null;null;44.372999;4.691438
985336;Cession à venir;null;Rue Saint Lupien;;;;;;;;;;;;;;47.19139;-1.567944
1002436;Cession à venir;null;Les Hocbures;87240;;;;;LES LOGES;CALVADOS;Ministère de la Transition écologique et solidaire;null;null;null;null;null;45.936633;1.419537
1003137;Cession à venir;null;14, rue Ferdinand Buisson;62170;;;;;MONTREUIL;SEINE-SAINT-DENIS;Ministère de la Transition écologique et solidaire;null;null;null;null;null;48.873253;2.434817
1003598;Cession à venir;null;Route - RN 568;;;;;;;;;;;;;;43.368209;5.25149
1003599;Cession à venir;null;A 103;93330;;;;;NEUILLY SUR MARNE;SEINE-SAINT-DENIS;Ministère de la Transition écologique et solidaire;null;null;null;null;null;48.857113;2.529797
1003600;Cession à venir;null;63, rue Louis Ampère;93330;;;;;NEUILLY SUR MARNE;SEINE-SAINT-DENIS;Ministère du Travail;null;null;null;null;null;48.868231;2.52007
1003605;Cession à venir;null;A 103;93250;;;;;VILLEMOMBLE;SEINE-SAINT-DENIS;null;null;null;null;null;null;48.89031;2.510404
1004987;Cession à venir;null;2, rue Berthon;42230;;;;;SAINT ETIENNE;LOIRE;null;null;null;null;null;null;45.441864;4.389244
1007608;Cession à venir;null;Pompede;12510;;;;;OLEMPS;AVEYRON;Ministère de la Transition écologique et solidaire;null;null;null;null;null;44.345319;2.552182
1008230;Cession à venir;null;Cité Chantelauze;15100;;;;;COREN;CANTAL;Ministère de la Transition écologique et solidaire;null;null;null;null;null;45.06108;3.109563
1036537;Cession à venir;ESPACE NATUREL;A 75;12230;;;;;LAPANOUSE DE CERNON;AVEYRON;Ministère de la Transition écologique et solidaire;null;null;null;null;null;43.995159;3.097241
1043288;Cession à venir;null;39, avenue Emile Henriot;6300;;;;;NICE;ALPES-MARITIMES;Ministère de l’Enseignement supérieur, de la Recherche et de l’Innovation;null;null;null;null;null;43.695095;7.243979
1056508;Cession à venir;null;Fraction de l'ex-établissement Régional (matériel);;;;;;;;;;;;;;;
1056798;Cession à venir;null;Rue du Pergassan;;;;;;;;;;;;;;43.614928;3.797695
1059952;Cession à venir;null;Neuhof Eschau - Caserne Hoche;;;;;;;;;;;;;;49.035169;7.949141
1063370;Cession à venir;null;Chat d'Avoise;71210;;;;;MONTCHANIN;SAÔNE-ET-LOIRE;Ministère de la Transition écologique et solidaire;null;null;null;null;null;46.753215;4.478075
1107620;Cession à venir;null;17, rue Victor Hugo;38150;;;;;ROUSSILLON;ISÈRE;null;null;null;null;null;null;45.370093;4.801198
1107623;Cession à venir;null;Ancien bois de Saint Don;54110;;;;;DOMBASLE SUR MEURTHE;MEURTHE-ET-MOSELLE;Ministère de la Transition écologique et solidaire;null;null;null;null;null;48.624555;6.354939
1108201;Cession à venir;null;Chemin Sarcelles Garges;95200;;;;;SARCELLES;VAL-D'OISE;Ministère de la Transition écologique et solidaire;null;null;null;null;null;48.989474;2.376989
1180556;Cession à venir;null;Mas Garit;34650;;;;;ROQUEREDONDE;HÉRAULT;null;null;null;null;null;null;43.809004;3.166288
1198906;Cession à venir;null;70, boulevard des Tchécoslovaques;69000;;;;;LYON;RHÔNE;null;null;null;null;null;null;45.74449;4.857731
1199847;Cession à venir;null;null;63370;;;;;LEMPDES;PUY-DE-DÔME;null;null;null;null;null;null;45.769049;3.20676
1226035;Cession à venir;null;5, rue de l'Orme de Chamars;25000;;;;;BESANÇON;DOUBS;Ministère de l’Enseignement supérieur, de la Recherche et de l’Innovation;null;null;null;null;null;47.236065;6.021554
1301282;Cession à venir;null;43, rue Ozomont;55100;;;;;VERDUN;MEUSE;null;null;null;null;null;null;49.154406;5.393241
1338348;Cession à venir;LOGEMENT;Le Bourg;64430;;;;;URDOS;PYRÉNÉES-ATLANTIQUES;null;null;null;null;null;null;43.206672;-1.343875
1338609;Cession à venir;null;Quai de Gand;59100;;;;;ROUBAIX;NORD;null;null;null;null;null;null;50.706572;3.174988
1341004;Cession à venir;null;La Tranchée;11000;;;;;VALMY;MARNE;Ministère de la Transition écologique et solidaire;null;null;null;null;null;43.23735;2.383671
1377889;Cession à venir;null;La Tassonnière;74430;;;;;SEYTROUX;HAUTE-SAVOIE;null;null;null;null;null;null;46.251184;6.623303
1387396;Cession à venir;null;27-29, rue du Général Sarrail;86000;;;;;POITIERS;VIENNE;null;null;null;null;null;null;46.589114;0.343239
1387608;Cession à venir;null;11, rue Aubert;88000;;;;;EPINAL;VOSGES;null;null;null;null;null;null;48.173778;6.446964
1462609;Cession à venir;null;La Prée de nid de Pie;49170;;;;;SAINT GEORGES SUR LOIRE;MAINE-ET-LOIRE;null;null;null;null;null;null;47.417709;-0.765628
1493273;Cession à venir;null;2-8, rue Colonel Quantin;21000;;;;;DIJON;CÔTE D'OR;null;null;null;null;null;null;47.340929;5.055595
1494347;Cession à venir;ESPACE NATUREL;Lieu-dit le Bois Dorval;;;;;;;;;;;;;;47.945103;-2.662569
1532850;Cession à venir;null;44, avenue Paul Cézanne;13290;;;;;AIX EN PROVENCE;BOUCHES-DU-RHÔNE;Ministère de la Justice;null;null;null;null;null;43.540892;5.445862
1545894;Cession à venir;SUPPORT DE PARCELLE;9, rue René Viviani;44300;;;;;NANTES;LOIRE-ATLANTIQUE;null;null;null;null;null;null;47.207994;-1.536259
1545896;Cession à venir;ESPACE NATUREL;Le Ghien;;;;;;;;;;;;;;47.066564;3.636611
1572536;Cession à venir;null;Le Peux;16600;;;;;RUELLE SUR TOUVRE;CHARENTE;Ministère de la Transition écologique et solidaire;null;null;null;null;null;45.671659;0.250288
1572741;Cession à venir;null;1, rue du Pichery;29000;;;;;QUIMPER;FINISTÈRE;null;null;null;null;null;null;47.996638;-4.105782
1586545;Cession à venir;ESPACE AMENAGE;2, rue Montbauron;78000;;;;;VERSAILLES;YVELINES;null;null;null;null;null;null;48.80236;2.134408
1599298;Cession à venir;null;Les Vingt Deux;62970;;;;;COURCELLES LES LENS;PAS-DE-CALAIS;Ministère de la Transition écologique et solidaire;null;null;null;null;null;50.413154;3.003862
1599483;Cession à venir;null;Voie des Ecouardes;95150;;;;;TAVERNY;VAL-D'OISE;null;null;null;null;null;null;49.021751;2.203137
1599484;Cession à venir;null;Rue Saint Martin;95300;;;;;PONTOISE;VAL-D'OISE;null;null;null;null;null;null;49.047389;2.091267
1599485;Cession à venir;null;80, avenue Schmitz;95300;;;;;PONTOISE;VAL-D'OISE;null;null;null;null;null;null;49.043988;2.087119
1599486;Cession à venir;null;"Lieu dit ""les Iles""";38800;;;;;LE PONT DE CLAIX;ISÈRE;Ministère de la Transition écologique et solidaire;null;null;null;null;null;45.142479;5.69043
1628674;Cession à venir;null;Les Pruniers;;;;;;;;;;;;;;49.599356;-1.295175
1638608;Cession à venir;null;Versailles - quartier le Logis Neuf;;;;;;;;;;;;;;48.790302;2.112327
1641945;Cession à venir;null;Route de Châteaufort;78117;;;;;TOUSSUS LE NOBLE;YVELINES;null;null;null;null;null;null;48.746068;2.11018
1663543;Cession à venir;null;5 et 7, rue Basse, le Village;;;;;;;;;;;;;;49.131722;4.88666
1663547;Cession à venir;null;30, rue de Poulpatré;29160;;;;;CROZON;FINISTÈRE;null;null;null;null;null;null;48.247028;-4.486791
1663735;Cession à venir;null;9, rue Gilbert Roddier;63000;;;;;CLERMONT FERRAND;PUY-DE-DÔME;Ministère de l'Éducation nationale;null;null;null;null;null;45.804745;3.107915
1671776;Cession à venir;null;Avenue du Maréchal Foch;91710;;;;;VERT LE PETIT;ESSONNE;null;null;null;null;null;null;48.541101;2.363103
1725208;Cession à venir;null;41, boulevard Industriel;76300;;;;;SOTTEVILLE LES ROUEN;SEINE-MARITIME;Ministère de la Transition écologique et solidaire;null;null;null;null;null;49.411039;1.109193
1784170;Cession à venir;ESPACE NATUREL;Les Layas;3700;;;;;SERBANNES;ALLIER;Ministère de l'Économie et des Finances;null;null;null;null;null;46.097823;3.358552
1784174;Cession à venir;null;Le Village;;;;;;;;;;;;;;45.338735;5.342643
1787335;Cession à venir;null;Les Hauts de Croze;;;;;;;;;;;;;;44.026074;3.425567
1814635;Cession à venir;ESPACE NATUREL;Pré Gueux;2600;;;;;COYOLLES;AISNE;Ministère de l'Agriculture et de l'Alimentation;null;null;null;null;null;49.228945;3.073642
1854116;Cession à venir;null;A Branas;32410;;;;;BONAS;GERS;null;null;null;null;null;null;43.776056;0.393831
1854118;Cession à venir;null;Zone de Parpareux;22600;;;;;LOUDEAC;CÔTES D'ARMOR;Ministère de la Transition écologique et solidaire;null;null;null;null;null;48.178873;-2.684234
1858205;Cession à venir;null;70, rue Guy Moquet;58640;;;;;VARENNES VAUZELLES;NIÈVRE;null;null;null;null;null;null;47.000478;3.133262
1859113;Cession à venir;null;40, boulevard de Lyon;2000;;;;;LAON;AISNE;null;null;null;null;null;null;49.569419;3.628143
1875713;Cession à venir;null;Carols de Lubac;;;;;;;;;;;;;;44.962522;4.7106
1889926;Cession à venir;null;La Vieille Côte;;;;;;;;;;;;;;44.168796;2.527881
1893572;Cession à venir;null;Saint Antoine;9000;;;;;SAINT PAUL DE JARRAT;ARIÈGE;Ministère de la Transition écologique et solidaire;null;null;null;null;null;42.917726;1.64247
1909635;Cession à venir;null;Les Gouges;;;;;;;;;;;;;;46.303071;1.429116
1910352;Cession à venir;BATIMENT TECHNIQUE;9, rue Claude Danziger;63000;;;;;CLERMONT FERRAND;PUY-DE-DÔME;Ministère de la Culture;null;null;null;null;null;45.811113;3.112427
1947150;Cession à venir;null;Ensemble immobilier - Maison Neuve;;;;;;;;;;;;;;46.452852;3.932418
1969107;Cession à venir;null;Fond la Vallée de Cergy;95220;;;;;HERBLAY;VAL-D'OISE;null;null;null;null;null;null;48.991772;2.165496
2008662;Cession à venir;null;6, rue Bachelet;75000;;;;;PARIS;PARIS;null;null;null;null;null;null;48.888259;2.345196
2025532;Cession à venir;null;9, allée Paul Doumer;51000;;;;;CHALONS EN CHAMPAGNE;MARNE;Ministère de l'Économie et des Finances;null;null;null;null;null;48.952469;4.370151
2025533;Cession à venir;ESPACE NATUREL;61, avenue du Président Wilson;;;;;;;;;;;;;;47.58147;1.342845
2025721;Cession à venir;null;L'Aiglon;;;;;;;;;;;;;;41.923445;8.730498
2034757;Cession à venir;null;Zone d'aménagement de Saint Vallier - Voie le Garay;26600;;;;;EROME;DRÔME;null;null;null;null;null;null;16.253581;-61.563683
2035916;Cession à venir;null;Voie le Moulin;76290;;;;;FONTAINE LA MALLET;SEINE-MARITIME;Ministère de la Transition écologique et solidaire;null;null;null;null;null;49.529465;0.128335
2075463;Cession à venir;BATIMENT TECHNIQUE;Le Baillarquet;62780;;;;;CUCQ;PAS-DE-CALAIS;Ministère de l'Économie et des Finances;null;null;null;null;null;50.480953;1.608173
2098360;Cession à venir;null;Rue GRDE (AR 20) et les Roches (AR 40);69600;;;;;OULLINS;RHÔNE;Ministère de la Transition écologique et solidaire;null;null;null;null;null;45.709255;4.814369
2098362;Cession à venir;null;Chemin de Sanzy;69230;;;;;SAINT GENIS LAVAL;RHÔNE;Ministère de la Transition écologique et solidaire;null;null;null;null;null;45.709949;4.795464
2098363;Cession à venir;null;Les Essarts;;;;;;;;;;;;;;45.898848;1.304294
2121725;Cession à venir;ESPACE AMENAGE;93, rue de la République;17300;;;;;ROCHEFORT;CHARENTE-MARITIME;null;null;null;null;null;null;45.938196;-0.960781
2135131;Cession à venir;null;Route RN 12;22540;;;;;TREGLAMUS;CÔTES D'ARMOR;null;null;null;null;null;null;48.562985;-3.21586
2135333;Cession à venir;null;Parc AR HENT BRAS;;;;;;;;;;;;;;47.873713;-4.131121
2135334;Cession à venir;ESPACE NATUREL;La Vieille Côte;;;;;;;;;;;;;;44.168796;2.527881
2135335;Cession à venir;null;Sentier la Vieille Côte;;;;;;;;;;;;;;50.474558;2.864083
2139327;Cession à venir;LOGEMENT;Ex-CEREMA - 2, boulevard Gambetta;60200;;;;;COMPIEGNE;OISE;null;null;null;null;null;null;49.413762;2.812521
2139523;Cession à venir;null;Garrigue;9000;;;;;PRADIERES;ARIÈGE;null;null;null;null;null;null;42.968003;1.650331
2139528;Cession à venir;null;98-100, Impasse Gabriel Péri;95130;;;;;LE PLESSIS BOUCHARD;VAL-D'OISE;null;null;null;null;null;null;48.999009;2.247673
2140312;Cession à venir;null;2 bis, Cité Martignac;75000;;;;;PARIS;PARIS;null;null;null;null;null;null;48.857055;2.318014
2157376;Cession à venir;null;Rue de l'As de Carreau;90000;;;;;BELFORT;TERRITOIRE-DE-BELFORT;Ministère de l’Enseignement supérieur, de la Recherche et de l’Innovation;null;null;null;null;null;47.638101;6.855101
2163327;Cession à venir;null;Les Hauts Tilliers;92230;;;;;GENNEVILLIERS;HAUTS-DE-SEINE;null;null;null;null;null;null;48.934673;2.306241
2202497;Cession à venir;ESPACE NATUREL;Prairie de Bassac;16200;;;;;TRIAC LAUTRAIT;CHARENTE;null;null;null;null;null;null;45.67843;-0.12037
2222724;Cession à venir;null;Boulevard Foch;59660;;;;;MERVILLE;NORD;null;null;null;null;null;null;50.641891;2.635556
2247032;Cession à venir;ESPACE NATUREL;Le Kernillien;;;;;;;;;;;;;;47.903659;-3.052493
2272945;Cession à venir;null;2, rue des Vallots;27400;;;;;LOUVIERS;EURE;Ministère de la Transition écologique et solidaire;null;null;null;null;null;49.202827;1.150445
2276969;Cession à venir;null;Près de Juvigny;;;;;;;;;;;;;;46.214448;6.298903
2278421;Cession à venir;null;Ensemble immobilier le Chenedet;;;;;;;;;;;;;;;
2278422;Cession à venir;null;Lieu-dit Rive Gauche du Scorff;56600;;;;;LANESTER;MORBIHAN;null;null;null;null;null;null;47.763227;-3.362677
2286288;Cession à venir;null;ZAC Zone commerciale nord;;;;;;;;;;;;;;-12.782384;45.222564
2304158;Cession à venir;null;2, rue de la Préfecture;25000;;;;;BESANÇON;DOUBS;Ministère de l’Enseignement supérieur, de la Recherche et de l’Innovation;null;null;null;null;null;47.23585;6.025974
2348460;Cession à venir;ESPACE AMENAGE;3, avenue Joseph Le Brix;35136;;;;;SAINT JACQUES DE LA LANDE;ILLE-ET-VILAINE;null;null;null;null;null;null;48.068058;-1.727828
2349726;Cession à venir;null;Route Oberhof;67330;;;;;NEUWILLER LES SAVERNE;BAS-RHIN;Office national des Forêts;null;null;null;null;null;48.82297;7.400195
2367905;Cession à venir;ESPACE NATUREL;La petite Perche;3460;;;;;TREVOL;ALLIER;Ministère de la Transition écologique et solidaire;null;null;null;null;null;46.624294;3.28959
2384551;Cession à venir;null;Rue de l'avenir;14760;;;;;BRETTEVILLE SUR ODON;CALVADOS;Ministère de la Transition écologique et solidaire;null;null;null;null;null;49.168156;-0.41497
2384704;Cession à venir;null;Kroas Kerven;;;;;;;;;;;;;;48.29293;-4.090832
2392614;Cession à venir;SUPPORT DE PARCELLE;71, boulevard Cote Blatin;63000;;;;;CLERMONT FERRAND;PUY-DE-DÔME;null;null;null;null;null;null;45.767936;3.087433
2392842;Cession à venir;null;43, rue Courtepée;21210;;;;;SAULIEU;CÔTE D'OR;null;null;null;null;null;null;47.285593;4.225651
2397380;Cession à venir;LOGEMENT;Chez Duret;3120;;;;;LAPALISSE;ALLIER;Ministère de la Transition écologique et solidaire;null;null;null;null;null;46.236815;3.625572
2397875;Cession à venir;null;Maison forestière des Eygaziers;;;;;;;;;;;;;;49.491881;1.574136
2397876;Cession à venir;null;Maison forestière de la Réserve;;;;;;;;;;;;;;44.412509;6.71629
2397878;Cession à venir;null;Les Landes Blanches - Forêt de Tronçais;3360;;;;;BRAIZE;ALLIER;null;null;null;null;null;null;46.639586;2.707939
2397880;Cession à venir;null;La Tuilerie;;;;;;;;;;;;;;49.151057;1.971359
2407407;Cession à venir;null;151, rue de Paris;2100;;;;;SAINT QUENTIN;AISNE;Ministère de la Transition écologique et solidaire;null;null;null;null;null;49.837919;3.27121
2435423;Cession à venir;null;Rue de Grignan;;;;;;;;;;;;;;43.636095;5.102149
2435424;Cession à venir;null;Route de Ganges;34070;;;;;MONTPELLIER;HÉRAULT;Ministère de l’Enseignement supérieur, de la Recherche et de l’Innovation;null;null;null;null;null;43.599069;3.850293
2443918;Cession à venir;null;L'Entrepôt;;;;;;;;;;;;;;43.842443;4.281977
2443920;Cession à venir;null;Délaissée RN 106;30190;;;;;BOUCOIRAN ET NOZIERES;GARD;null;null;null;null;null;null;43.995028;4.18503
2447326;Cession à venir;null;Pelaud;;;;;;;;;;;;;;44.277419;1.013654
2466320;Cession à venir;null;Voie Langouhedre;;;;;;;;;;;;;;48.377538;-2.368531
2466321;Cession à venir;null;Voie le Clos Tertre;;;;;;;;;;;;;;47.522883;1.445151
2466322;Cession à venir;null;Voie Langouhedre;;;;;;;;;;;;;;48.377538;-2.368531
2466323;Cession à venir;null;Voie le Dermond;;;;;;;;;;;;;;48.736635;2.403735
2466324;Cession à venir;null;Voie la Ville Josse;;;;;;;;;;;;;;50.439409;1.711956
2466325;Cession à venir;null;Voie la Ville Josse;;;;;;;;;;;;;;50.439409;1.711956
2466326;Cession à venir;null;Maison Forestière du Chant des Oiseaux;;;;;;;;;;;;;;46.344566;-0.459525
2466727;Cession à venir;null;4, avenue de Verdun;38240;;;;;MEYLAN;ISÈRE;null;null;null;null;null;null;45.212149;5.774131
2468434;Cession à venir;null;13, avenue Saint Symphorien;56000;;;;;VANNES;MORBIHAN;null;null;null;null;null;null;47.661984;-2.755186
2469771;Cession à venir;SUPPORT DE PARCELLE;La Motte au Bois;;;;;;;;;;;;;;50.683063;2.572171
2469772;Cession à venir;null;La Clôture;;;;;;;;;;;;;;48.300682;-2.159898
2480006;Cession à venir;null;Fangot;;;;;;;;;;;;;;44.167736;0.71686
2480454;Cession à venir;null;La Chapelle du Fay;42152;;;;;L HORME;LOIRE;null;null;null;null;null;null;45.502764;4.537219
2497967;Cession à venir;RESEAUX ET VOIRIES;12, rue Guy Ropartz;22000;;;;;SAINT-BRIEUC;CÔTES D'ARMOR;null;null;null;null;null;null;48.516923;-2.760834
2532698;Cession à venir;null;105, avenue du Général Leclerc;;;;;;;;;;;;;;48.825516;2.326346
2536813;Cession à venir;null;42, rue Aristide Briand;78500;;;;;SARTROUVILLE;YVELINES;Ministère de la Transition écologique et solidaire;null;null;null;null;null;48.938792;2.175054
2558826;Cession à venir;null;Les Bruyères B3193;;;;;;;;;;;;;;45.311391;1.30001
2559729;Cession à venir;null;Résidence Quennevieres;;;;;;;;;;;;;;43.091314;6.0822
2563113;Cession à venir;null;367-385, rue de Bellevue;73500;;;;;MODANE;SAVOIE;null;null;null;null;null;null;45.205925;6.670087
2577307;Cession à venir;null;25, avenue des Prades;62790;;;;;CHATELGUYON;PUY-DE-DÔME;Ministère de la Transition écologique et solidaire;null;null;null;null;null;50.427904;3.066214
2625567;Cession à venir;null;Fort de Romainville;;;;;;;;;;;;;;48.884942;2.422751
2649895;Cession à venir;null;Montée des Pierres Blanches;34200;;;;;SETE;HÉRAULT;null;null;null;null;null;null;43.401245;3.669026
2658329;Cession à venir;null;Rue Guynemer;91230;;;;;MONTGERON;ESSONNE;Ministère de la Transition écologique et solidaire;null;null;null;null;null;48.707635;2.443811
2667474;Cession à venir;null;1, Grande Rue;;;;;;;;;;;;;;47.234954;6.029165
2668027;Cession à venir;null;14 à 18, rue Patton;54320;;;;;MAXEVILLE;MEURTHE-ET-MOSELLE;Ministère de la Transition écologique et solidaire;null;null;null;null;null;48.708958;6.162018
2684899;Cession à venir;null;CRS 59, Chemin de Saint Roch;83190;;;;;OLLIOULES;VAR;null;null;null;null;null;null;43.133016;5.849414
2697580;Cession à venir;null;Les Moines;71680;;;;;CRECHES SUR SAONE;SAÔNE-ET-LOIRE;Ministère de la Transition écologique et solidaire;null;null;null;null;null;46.248497;4.766675
2713162;Cession à venir;null;600,Boulevard Alsace Lorraine;;;;;;;;;;;;;;44.017712;1.366926
2722969;Cession à venir;null;Avenue de la République;52000;;;;;CHAUMONT;HAUTE-MARNE;null;null;null;null;null;null;48.099474;5.14489
2735348;Cession à venir;null;Rue des Korrigans;56340;;;;;CARNAC;MORBIHAN;Ministère de la Culture;null;null;null;null;null;47.587841;-3.077701
2761864;Cession à venir;null;Reder, Hund, Spitzen, Rue de Fameck;;;;;;;;;;;;;;;
2761938;Cession à venir;null;La Plane;66320;;;;;MARQUIXANES;PYRÉNÉES-ORIENTALES;null;null;null;null;null;null;42.641421;2.485636
2786575;Cession à venir;null;Le Village Nord;62116;;;;;PUISIEUX;PAS-DE-CALAIS;null;null;null;null;null;null;50.11622;2.693829
2799631;Cession à venir;ESPACE NATUREL;Bâtiments 5, 6, 7 et 8;;;;;;;;;;;;;;45.997597;3.509546
2802530;Cession à venir;null;L'Aiglon;;;;;;;;;;;;;;41.923445;8.730498
2827310;Cession à venir;null;Gelan;64440;;;;;LARUNS;PYRÉNÉES-ATLANTIQUES;Ministère de la Transition écologique et solidaire;null;null;null;null;null;42.913752;-0.439624
2846973;Cession à venir;null;Les Coulées RN 176 Voie Quevert;22100;;;;;QUEVERT;CÔTES D'ARMOR;null;null;null;null;null;null;48.475201;-2.093112
2847212;Cession à venir;null;RN 53 et Autoroute A31;57270;;;;;RICHEMONT;MOSELLE;Ministère de la Transition écologique et solidaire;null;null;null;null;null;49.282739;6.168998
2847611;Cession à venir;ESPACE NATUREL;Rue Jean Nicot;24100;;;;;BERGERAC;DORDOGNE;null;null;null;null;null;null;44.862156;0.48884
2850075;Cession à venir;null;Au Cugnot Jallat (A 390);54450;;;;;BENAMENIL;MEURTHE-ET-MOSELLE;null;null;null;null;null;null;48.56803;6.677232
2853600;Cession à venir;null;Sabadio;31440;;;;;EUP;HAUTE-GARONNE;null;null;null;null;null;null;42.923785;0.682272
2856359;Cession à venir;null;281, avenue Emile Bodin;13600;;;;;LA CIOTAT;BOUCHES-DU-RHÔNE;Ministère de la Transition écologique et solidaire;null;null;null;null;null;43.187357;5.605849
2856421;Cession à venir;null;Rue Emmanuel Liais;50100;;;;;CHERBOURG OCTEVILLE;MANCHE;null;null;null;null;null;null;49.64105;-1.628366
2880976;Cession à venir;null;Pecos de Soupay;9200;;;;;RIVERENERT;ARIÈGE;null;null;null;null;null;null;42.953356;1.25255
2897169;Cession à venir;null;26, rue de la Monnaie;35700;;;;;RENNES;ILLE-ET-VILAINE;null;null;null;null;null;null;48.111166;-1.684665
2897170;Cession à venir;null;Marquaires;48400;;;;;BASSURELS;LOZÈRE;Office national des Forêts;null;null;null;null;null;44.186642;3.59633
2904517;Cession à venir;null;Rue de la Patrotte;57050;;;;;METZ;MOSELLE;Ministère de la Transition écologique et solidaire;null;null;null;null;null;49.134269;6.167425
2905059;Cession à venir;null;10, rue Périgot;57050;;;;;METZ;MOSELLE;Ministère de la Transition écologique et solidaire;null;null;null;null;null;49.127866;6.16119
2914039;Cession à venir;null;Grand Champ Mourier Nord;33113;;;;;SAINT SYMPHORIEN;DEUX-SÈVRES;null;null;null;null;null;null;44.425349;-0.486346
2918206;Cession à venir;null;Maison forestière des Haizettes - 40, route des Haizettes;78490;;;;;GROSROUVRE;YVELINES;null;null;null;null;null;null;48.766539;1.745711
2951612;Cession à venir;null;"Route Nationale 31 - Lieu-dit ""Le Berne""";60200;;;;;COMPIEGNE;OISE;Service des domaines;null;null;null;null;null;49.414713;2.918709
2951613;Cession à venir;null;Beauregard;37150;;;;;BLERE;INDRE-ET-LOIRE;null;null;null;null;null;null;47.313988;1.000099
2951761;Cession à venir;null;La Corvée de peu;25530;;;;;VERCEL VILLEDIEU LE CAMP;DOUBS;null;null;null;null;null;null;47.181802;6.392987
2999402;Cession à venir;null;RD 33;57905;;;;;SARREINSMING;MOSELLE;Ministère de la Transition écologique et solidaire;null;null;null;null;null;49.091449;7.119911
3015285;Cession à venir;null;Rue Petit Bois;71300;;;;;MONTCEAU LES MINES;SAÔNE-ET-LOIRE;Ministère de la Transition écologique et solidaire;null;null;null;null;null;46.681933;4.378407
3047323;Cession à venir;null;230, avenue du Brezet;63000;;;;;CLERMONT FERRAND;PUY-DE-DÔME;null;null;null;null;null;null;45.779377;3.138314
3066917;Cession à venir;null;65, rue du Général de Gaulle;25460;;;;;ETUPES;DOUBS;null;null;null;null;null;null;47.505429;6.848603
3097701;Cession à venir;null;Rue des Ayrals;47000;;;;;RIOLS;HÉRAULT;null;null;null;null;null;null;43.50611;2.792319
3100588;Cession à venir;null;Rue du Général Roguet;;;;;;;;;;;;;;48.905906;2.31304
3100595;Cession à venir;null;Avenue Neuhof;;;;;;;;;;;;;;48.552092;7.766248
3101166;Cession à venir;null;Lanec Roch Guen - Voie vers RN 164 - LD Lanec Roch Guen (B 1445);22570;;;;;SAINT GELVEN;CÔTES D'ARMOR;null;null;null;null;null;null;48.219859;-3.099314
3108560;Cession à venir;BATIMENT TECHNIQUE;1, rue des Près Devant;71100;;;;;CHALON SUR SAONE;SAÔNE-ET-LOIRE;Ministère de l'Action et des Comptes publics;null;null;null;null;null;46.779976;4.840944
3124424;Cession à venir;SUPPORT DE PARCELLE;37, avenue de l'Europe;7400;;;;;LE TEIL;ARDÈHE;null;null;null;null;null;null;44.545425;4.686356
3124920;Cession à venir;null;Lanech Roch Guen Voie vers R164 - LD Lanech Roch Guen (B 1443);22570;;;;;SAINT GELVEN;CÔTES D'ARMOR;null;null;null;null;null;null;48.219859;-3.099314
3125093;Cession à venir;null;Lannec Roch Guen voie vers RN 164 - LD Lannec Roch Guen (B 1344);22570;;;;;SAINT GELVEN;CÔTES D'ARMOR;null;null;null;null;null;null;48.219859;-3.099314
3125634;Cession à venir;null;Parc Pont AR Folic;;;;;;;;;;;;;;48.562525;-4.38677
3125725;Cession à venir;null;Parc Pont AR Folic;;;;;;;;;;;;;;48.562525;-4.38677
3125737;Cession à venir;null;Parc Pont AR Folic;;;;;;;;;;;;;;48.562525;-4.38677
3125793;Cession à venir;null;null;22570;;;;;SAINT GELVEN;CÔTES D'ARMOR;null;null;null;null;null;null;48.230549;-3.069732
3125820;Cession à venir;null;Parc Roch;;;;;;;;;;;;;;48.138789;-3.836788
3128482;Cession à venir;null;Parc Bras;;;;;;;;;;;;;;47.902442;-3.254583
3128483;Cession à venir;null;AR Brehelot;;;;;;;;;;;;;;48.47787;-4.693562
3128486;Cession à venir;null;AR Brehelot;;;;;;;;;;;;;;48.47787;-4.693562
3128487;Cession à venir;null;AR Brehelot;;;;;;;;;;;;;;48.47787;-4.693562
3128931;Cession à venir;null;AR Brehelot;;;;;;;;;;;;;;48.47787;-4.693562
3129066;Cession à venir;null;AR Brehelot;;;;;;;;;;;;;;48.47787;-4.693562
3129098;Cession à venir;null;263, quai d'Alsace;59500;;;;;DOUAI;NORD;Ministère de la Transition écologique et solidaire;null;null;null;null;null;50.378009;3.084419
3129905;Cession à venir;BUREAU;27, rue Sénèque;13300;;;;;SALON DE PROVENCE;BOUCHES-DU-RHÔNE;null;null;null;null;null;null;43.642167;5.093346
3154814;Cession à venir;SUPPORT DE PARCELLE;94, avenue des Grésillons;92600;;;;;ASNIERES SUR SEINE;HAUTS-DE-SEINE;null;null;null;null;null;null;48.91555;2.30302
3162759;Cession à venir;BUREAU;Moulin de la Grange;18000;;;;;BOURGES;CHER;null;null;null;null;null;null;47.073952;2.349372
3242557;Cession à venir;null;LD Lafourcade;40230;;;;;ORX;LANDES;null;null;null;null;null;null;43.60105;-1.375186
3242558;Cession à venir;null;LD Manga Cazenave;40230;;;;;ORX;LANDES;null;null;null;null;null;null;43.60953;-1.362798
3243322;Cession à venir;null;63, Rue du Tauzin;33200;;;;;BORDEAUX;GIRONDE;null;null;null;null;null;null;44.854856;-0.608509
3246288;Cession à venir;null;4, rue de l'Evêché;;;;;;;;;;;;;;43.297848;5.365872
3258714;Cession à venir;null;La Goutière;55000;;;;;LONGEVILLE EN BARROIS;MEUSE;Ministère de la Transition écologique et solidaire;null;null;null;null;null;48.745198;5.223539
3258715;Cession à venir;null;142, avenue François Mitterrand;91160;;;;;LONGJUMEAU;ESSONNE;null;null;null;null;null;null;48.693034;2.292343
3262402;Cession à venir;BUREAU;50, rue Victor Hugo;40000;;;;;MONT DE MARSAN;LANDES;null;null;null;null;null;null;43.893049;-0.501468
3280828;Cession à venir;null;Ty Bris voie vers RN 164 (ZI 184);22570;;;;;SAINT GELVEN;CÔTES D'ARMOR;null;null;null;null;null;null;48.218983;-3.087129
3280829;Cession à venir;null;Le Mane voie vers RN 164 (ZI 187);22570;;;;;SAINT GELVEN;CÔTES D'ARMOR;null;null;null;null;null;null;48.224589;-3.084989
3280830;Cession à venir;null;Le Mane voie vers RN 164 (ZI 188);22570;;;;;SAINT GELVEN;CÔTES D'ARMOR;null;null;null;null;null;null;48.224589;-3.084989
3280831;Cession à venir;null;Lannec Bras voie vers RN 164;22570;;;;;GOUAREC;CÔTES D'ARMOR;null;null;null;null;null;null;48.801554;-3.151515
3280833;Cession à venir;null;Lannec Bras voie vers RN 164;22570;;;;;GOUAREC;CÔTES D'ARMOR;null;null;null;null;null;null;48.801554;-3.151515
3280834;Cession à venir;null;Lannec Bian voie vers RN 164;22570;;;;;GOUAREC;CÔTES D'ARMOR;null;null;null;null;null;null;48.232262;-3.183999
3280835;Cession à venir;null;Lannec Bian voie vers RN 164;22570;;;;;GOUAREC;CÔTES D'ARMOR;null;null;null;null;null;null;48.232262;-3.183999
3280836;Cession à venir;null;Kerfloch H Bian voie vers RN 164;22570;;;;;GOUAREC;CÔTES D'ARMOR;null;null;null;null;null;null;48.183968;-3.192785
3280852;Cession à venir;null;Kerfloc H Bian voie vers RN 164;22570;;;;;GOUAREC;CÔTES D'ARMOR;null;null;null;null;null;null;48.183968;-3.192785
3280858;Cession à venir;null;Route de Soulie;46500;;;;;GRAMAT;LOT;null;null;null;null;null;null;44.789842;1.720417
3280871;Cession à venir;null;Ty Bris voie vers RN 164 (ZI 185);22570;;;;;SAINT GELVEN;CÔTES D'ARMOR;null;null;null;null;null;null;48.218983;-3.087129
3283840;Cession à venir;BATIMENT TECHNIQUE;Maison forestière de Thiebemont;;;;;;;;;;;;;;44.412509;6.71629
3283902;Cession à venir;null;9, rue Charles Nodier;25000;;;;;BESANÇON;DOUBS;Ministère de la Culture;null;null;null;null;null;47.233041;6.02338
3283993;Cession à venir;null;La Grande Rye;86150;;;;;LE VIGEANT;VIENNE;null;null;null;null;null;null;46.196047;0.647292
3300789;Cession à venir;null;Ancien Bois Saint Don;54110;;;;;DOMBASLE SUR MEURTHE;MEURTHE-ET-MOSELLE;Ministère de l'Agriculture et de l'Alimentation;null;null;null;null;null;48.624555;6.354939
3307798;Cession à venir;null;76, avenue Jacques Demy;17300;;;;;ROCHEFORT;CHARENTE-MARITIME;Ministère de la Transition écologique et solidaire;null;null;null;null;null;45.917392;-0.960588
3308501;Cession à venir;null;2, boulevard Allard et 4, place Mellinet;;;;;;;;;;;;;;;
3336113;Cession à venir;null;Lot de copropriété n° 329;;;;;;;;;;;;;;43.452734;5.473621
3343555;Cession à venir;null;10, route de Savoie;38420;;;;;DOMENE;ISÈRE;null;null;null;null;null;null;45.204766;5.844749
3371104;Cession à venir;LOGEMENT;Terre des Marpionnes;;;;;;;;;;;;;;45.854011;-0.526762
3382854;Cession à venir;LOGEMENT;17, rue Tempier;;;;;;;;;;;;;;48.54755;-1.755996
3386419;Cession à venir;null;Quai Jacoutot Bassin Auberger;67000;;;;;STRASBOURG;BAS-RHIN;null;null;null;null;null;null;48.591236;7.793713
3386715;Cession à venir;null;"SNIAS lieu-dit ""le Page""";31500;;;;;TOULOUSE;HAUTE-GARONNE;null;null;null;null;null;null;43.627855;1.435585
3387195;Cession à venir;null;Résidence les Terrasses de la Fontette;;;;;;;;;;;;;;43.659715;6.924057
3387196;Cession à venir;null;Avenue du Général Leclerc;59155;;;;;FACHES THUMESNIL;NORD;Ministère de la Transition écologique et solidaire;null;null;null;null;null;50.592721;3.084004
3387357;Cession à venir;null;Surfaces base aérienne;95150;;;;;TAVERNY;VAL-D'OISE;null;null;null;null;null;null;49.015302;2.205225
3393974;Cession à venir;null;Le Touzet;7380;;;;;LALEVADE D'ARDECHE;ARDÈHE;Ministère de la Transition écologique et solidaire;null;null;null;null;null;44.645784;4.32279
3394142;Cession à venir;null;Verpillières;52310;;;;;BOLOGNE;HAUTE-MARNE;null;null;null;null;null;null;48.182083;5.113423
3394986;Cession à venir;null;Boulevard des Eaux;95240;;;;;CORMEILLES EN PARISIS;VAL-D'OISE;null;null;null;null;null;null;48.963927;2.202062
3409806;Cession à venir;null;Bâtiment 9;;;;;;;;;;;;;;45.127881;1.565855
3418558;Cession à venir;ESPACE NATUREL;3, rue Ampère;15000;;;;;AURILLAC;CANTAL;Ministère des Solidarités et de la Santé;null;null;null;null;null;44.913551;2.423601
3426166;Cession à venir;null;9, rue Charles Nodier;25000;;;;;BESANÇON;DOUBS;null;null;null;null;null;null;47.233041;6.02338
3437304;Cession à venir;null;Rue Forest d'Entrais;5000;;;;;GAP;HAUTES ALPES;null;null;null;null;null;null;44.568848;6.089818
3437357;Cession à venir;null;Bastourne;;;;;;;;;;;;;;43.155547;0.079996
3437358;Cession à venir;null;L'Entrée des Prés;;;;;;;;;;;;;;44.045471;5.940163
3491991;Cession à venir;null;Grand Hôtel du Trayas;;;;;;;;;;;;;;42.505733;2.038653
3496413;Cession à venir;null;2, allée Commandant Charcot;44300;;;;;NANTES;LOIRE-ATLANTIQUE;null;null;null;null;null;null;47.217802;-1.543469
3516251;Cession à venir;null;28, boulevard Albert 1 er;54000;;;;;NANCY;MEURTHE-ET-MOSELLE;Ministère de la Transition écologique et solidaire;null;null;null;null;null;;
3520241;Cession à venir;null;69, place Charles Souchon;1120;;;;;MONTLUEL;AIN;null;null;null;null;null;null;45.850228;5.055925
3523273;Cession à venir;null;11 à 17, rue René Briand;;;;;;;;;;;;;;47.281232;-0.079195
3526985;Cession à venir;null;Rue Eisenhover;3200;;;;;VICHY;ALLIER;Ministère des Solidarités et de la Santé;null;null;null;null;null;46.126287;3.418631
3531864;Cession à venir;null;IGN Lattes;;;;;;;;;;;;;;43.578023;3.911442
3531868;Cession à venir;ESPACE NATUREL;Aux Caboussets;32310;;;;;VALENCE SUR BAISE;GERS;null;null;null;null;null;null;43.876772;0.37942
3546834;Cession à venir;null;Rond Point - Allée du Haurat;;;;;;;;;;;;;;44.688537;0.189685
3550338;Cession à venir;ESPACE NATUREL;Brécourt;50120;;;;;EQUEURDREVILLE HAINNEVILLE;MANCHE;null;null;null;null;null;null;49.656282;-1.668403
3558158;Cession à venir;null;Le Point triple;4510;;;;;MALIJAI;ALPES DE HAUTE-PROVENCE;Ministère de la Transition écologique et solidaire;null;null;null;null;null;44.052386;6.023623
3575090;Cession à venir;null;5, rue Hoche;58000;;;;;NEVERS;NIÈVRE;null;null;null;null;null;null;46.990723;3.157919
3578335;Cession à venir;null;3, Route d'Eteignières;8260;;;;;MAUBERT FONTAINE;ARDENNES;null;null;null;null;null;null;49.871649;4.429518
3581738;Cession à venir;null;Hourquets;65420;;;;;IBOS;HAUTES-PYRÉNÉES;null;null;null;null;null;null;43.233292;-0.004498
3593780;Cession à venir;null;Centre d'émission Villesauvage;91150;;;;;ETAMPES;ESSONNE;null;null;null;null;null;null;48.457511;2.110146
3601688;Cession à venir;ESPACE NATUREL;null;12230;;;;;L'HOSPITALET DU LARZAC;AVEYRON;Ministère de la Transition écologique et solidaire;null;null;null;null;null;43.972527;3.195651
3605817;Cession à venir;ESPACE NATUREL;Lou Castagno;16150;;;;;CHIRAC;LOZÈRE;null;null;null;null;null;null;45.885346;0.708621
3620104;Cession à venir;ESPACE NATUREL;Ecole de gendarmerie;;;;;;;;;;;;;;49.0136;6.392826
