ID;Etat;Nature;Adresse;Code_Postal;Commune;Département;Ministère_occupant ;Description;Année_de_1ère_inscription ;Nature_juridique_Acquereur;Type_Procédure_ayant_mené_à_la_vente;Année_Cession;latitude;longitude
110950233;Cession réalisée;ESPACE NATUREL;DE LA FISEE ET 16 RUE ST DENIS;95160;MONTMORENCY;VAL-D'OISE;Ministère de l'écologie, du développement durable, des transports et du logement;;2012;Personnes physiques non commerçantes;Appel d'offres;2017;48.989206;2.320909
120020004;Cession réalisée;ESPACE NATUREL;DU COUPEMENT;2100;ST QUENTIN;AISNE;Ministère de l'éducation nationale;;2012;Collectivités territoriales;Gré à gré;2017;49.847362;3.28481
120040012;Cession réalisée;LOGEMENT;DES EAUX CHAUDES;4000;DIGNE LES BAINS;ALPES DE HAUTE-PROVENCE;Ministère de l'économie, de l'industrie et de l'emploi;;2012;Entreprises société;Appel d'offres;2017;44.092343;6.235322
120050006;Cession réalisée;BUREAU;PASTEUR  BRIANÇON AT975/434;5100;BRIANCON;HAUTES ALPES;Ministère de l'intérieur, de l'Outre-mer et des collectivités territoriales;;2012;Etablissements publics locaux;Droit de priorité;2017;44.895379;6.634121
120060016;Cession réalisée;BATIMENT SANITAIRE OU SOCIAL;DU PALAIS DE JUSTICE;6130;GRASSE;ALPES-MARITIMES;Ministère de la justice et des libertés;;2012;Entreprises société;Appel d'offres;2017;43.657147;6.924098
120090006;Cession réalisée;ESPACE AMENAGE; ;9200;ST GIRONS;ARIÈGE;Ministère de l'intérieur, de l'Outre-mer et des collectivités territoriales;;2012;Associations;Gré à gré;2017;42.984155;1.145258
120120000;Cession réalisée;BUREAU;DES CONSULS;12100;MILLAU;AVEYRON;Ministère du budget, des comptes publics et de la réforme de l'Etat;;2012;Entreprises société;Appel d'offres;2017;44.096876;3.077432
120130060;Cession réalisée;BUREAU;JEAN MERMOZ;13700;MARIGNANE;BOUCHES-DU-RHÔNE;Ministère de l'intérieur, de l'Outre-mer et des collectivités territoriales;;2012;Etablissements publics locaux;Droit de priorité;2017;43.416474;5.214355
120130094;Cession réalisée;LOGEMENT;DU TOUR DE L'ETANG;13118;ISTRES;BOUCHES-DU-RHÔNE;Ministère de la défense;;2012;Entreprises société;Gré à gré;2017;43.513561;4.988075
120140037;Cession réalisée;BUREAU;TSUKUBA;14200;HEROUVILLE ST CLAIR;CALVADOS;Ministère de l'écologie, du développement durable, des transports et du logement;;2012;Collectivités territoriales;Gré à gré;2017;49.203256;-0.326748
120160027;Cession réalisée;BATIMENT TECHNIQUE;LIEDOT;16000;ANGOULEME;CHARENTE;Ministère de la défense;;2012;Etablissements publics locaux;Droit de priorité;2017;45.649231;0.159349
120180009;Cession réalisée;ESPACE AMENAGE; ;18000;BOURGES;CHER;Ministère de la défense;;2009;Entreprises société;Gré à gré;2017;47.08277;2.395012
120180018;Cession réalisée;BUREAU;GOURDON;18100;VIERZON;CHER;Ministère de l'éducation nationale;;2012;Personnes physiques non commerçantes;Gré à gré;2017;47.221054;2.06837
120250029;Cession réalisée;BUREAU;DE PICARDIE;25000;BESANCON;DOUBS;Ministère du budget, des comptes publics et de la réforme de l'Etat;;2012;Collectivités territoriales;Droit de priorité;2017;47.242188;6.02007
120280048;Cession réalisée;LOGEMENT;DE BLOIS;28200;CHATEAUDUN;EURE-ET-LOIR;Ministère de l'écologie, du développement durable, des transports et du logement;;2012;Collectivités territoriales;Droit de priorité;2017;48.06995;1.337712
120290008;Cession réalisée;LOGEMENT; ;29200;BREST;FINISTÈRE;Ministère de l'intérieur, de l'Outre-mer et des collectivités territoriales;;2012;Etablissements publics nationaux;Droit de priorité;2017;48.389729;-4.487808
120290011;Cession réalisée;BUREAU;LA PALESTINE;29000;QUIMPER;FINISTÈRE;Ministère du budget, des comptes publics et de la réforme de l'Etat;;2012;Entreprises société;Gré à gré;2017;47.995479;-4.098022
1202A0000;Cession réalisée;LOGEMENT; ;20169;BONIFACIO;CORSE-DU-SUD;Ministère de la défense;;2012;Collectivités territoriales;Droit de priorité;2017;41.387641;9.159825
120300006;Cession réalisée;ESPACE NATUREL; ;40200;ST GILLES;GARD;Ministère de la défense;;2012;Collectivités territoriales;Appel d'offres;2017;44.21827;-1.151539
120310026;Cession réalisée;BUREAU;GRANDE RUE SAINT-MICHEL (BRANCHE GAUCHE);31500;TOULOUSE;HAUTE-GARONNE;Ministère de l'économie, de l'industrie et de l'emploi;;2012;Entreprises société;Appel d'offres;2017;43.604268;1.441019
120310027;Cession réalisée;BUREAU;GRANDE RUE SAINT-MICHEL (BRANCHE DROITE);31500;TOULOUSE;HAUTE-GARONNE;Ministère de l'économie, de l'industrie et de l'emploi;;2012;Entreprises société;Appel d'offres;2017;43.604268;1.441019
120310033;Cession réalisée;ESPACE NATUREL;DE COLOMIERS;31830;PLAISANCE DU TOUCH;HAUTE-GARONNE;Biens non affectés;;2012;Personnes physiques non commerçantes;Appel d'offres;2017;43.565192;1.296042
120320004;Cession réalisée;LOGEMENT;DU 8 MAI;32000;AUCH;GERS;Ministère de l'intérieur, de l'Outre-mer et des collectivités territoriales;;2012;Collectivités territoriales;Droit de priorité;2017;43.644497;0.588419
120340000;Cession réalisée;BUREAU;LOUIS BLANC;34070;MONTPELLIER;HÉRAULT;Ministère du budget, des comptes publics et de la réforme de l'Etat;;2012;Entreprises société;Appel d'offres;2017;43.611024;3.875521
120350030;Cession réalisée;LOGEMENT;RAPHAËL BINET;35700;RENNES;ILLE-ET-VILAINE;Biens non affectés;;2012;Personnes physiques non commerçantes;VNI;2017;48.113844;-1.681632
120370023;Cession réalisée;BUREAU;PLANTAGENET;37500;CHINON;INDRE-ET-LOIRE;Ministère de l'éducation nationale;;2012;Personne physique immatriculée (métropole);Appel d'offres;2017;47.16674;0.241754
120380043;Cession réalisée;LOGEMENT;GRANDE RUE;38680;PONT EN ROYANS;ISÈRE;Ministère de l'écologie, du développement durable, des transports et du logement;;2012;Personnes physiques non commerçantes;Adjudication;2017;45.062558;5.341809
120400004;Cession réalisée;BUREAU;PASTEUR;40000;MONT DE MARSAN;LANDES;Ministère de l'agriculture et de la pêche;;2012;Etablissements publics locaux;Gré à gré;2017;43.889563;-0.501576
120410001;Cession réalisée;BUREAU;DU FAUBOURG CHARTRAIN;41100;VENDOME;LOIR-ET-CHER;Ministère de l'écologie, du développement durable, des transports et du logement;;2012;Personnes physiques non commerçantes;Appel d'offres;2017;47.792111;1.064507
120440009;Cession réalisée;LOGEMENT;HENRI GAUTIER;44550;MONTOIR DE BRETAGNE;LOIRE-ATLANTIQUE;Ministère de la défense;;2012;Entreprises société;Droit de priorité;2017;47.3276;-2.150246
120440034;Cession réalisée;BUREAU;DE LA JONELIERE INPECT ACADÉMIQUE CANOPE WW 24 26;44300;NANTES;LOIRE-ATLANTIQUE;Ministère de l'éducation nationale;;2012;Entreprises société;Appel d'offres;2017;47.216354;-1.554456
120440057;Cession réalisée;BATIMENT TECHNIQUE; ;44130;LE GAVRE;LOIRE-ATLANTIQUE;Ministère de l'agriculture et de la pêche;;2012;Personne physique immatriculée (métropole);Appel d'offres;2017;47.520556;-1.749442
120490011;Cession réalisée;BATIMENT D'ENSEIGNEMENT OU DE SPORT;DU ROI RENÉ;49100;ANGERS;MAINE-ET-LOIRE;Ministère de l'enseignement supérieur et de la recherche;;2012;Collectivités territoriales;Autres droits;2017;47.47207;-0.556585
120500003;Cession réalisée;LOGEMENT;DE LA RÉSIDENCE DU STADE;50400;GRANVILLE;MANCHE;Ministère du budget, des comptes publics et de la réforme de l'Etat;;2012;Entreprises société;VNI;2017;48.83751;-1.588374
120500007;Cession réalisée;ESPACE AMENAGE; ;50460;QUERQUEVILLE;MANCHE;Ministère de la défense;;2008;Entreprises société;Appel d'offres;2017;49.658513;-1.711977
120510013;Cession réalisée;BUREAU;DES MARTYRS DE LA RESISTANCE;51000;CHALONS EN CHAMPAGNE;MARNE;Ministère de l'écologie, du développement durable, des transports et du logement;;2012;Entreprises société;Droit de priorité;2017;48.956391;4.364203
120530006;Cession réalisée;BUREAU;RIDELLERIE;53000;LAVAL;MAYENNE;Ministère de la justice et des libertés;;2012;Entreprises société;Appel d'offres;2017;48.072653;-0.770364
120570012;Cession réalisée;ESPACE NATUREL; ;57050;LORRY LES METZ;MOSELLE;Ministère de la défense;;2012;Etablissements publics nationaux;Droit de priorité;2017;49.141278;6.121153
120570017;Cession réalisée;ESPACE NATUREL; ;57050;PLAPPEVILLE;MOSELLE;Ministère de la défense;;2010;Etablissements publics nationaux;Droit de priorité;2017;49.130462;6.121872
120570055;Cession réalisée;BUREAU;1 RUE DES GLACIS;57370;PHALSBOURG;MOSELLE;Ministère de l'écologie, du développement durable, des transports et du logement;;2012;Collectivités territoriales;Droit de priorité;2017;48.76778;7.257914
120570089;Cession réalisée;BATIMENT TECHNIQUE; ;57270;UCKANGE;MOSELLE;Ministère de l'écologie, du développement durable, des transports et du logement;;2012;Personnes physiques non commerçantes;Adjudication;2017;49.302364;6.154282
120570093;Cession réalisée;BATIMENT TECHNIQUE;ROCHAMBEAU;57050;METZ;MOSELLE;Ministère de l'intérieur, de l'Outre-mer et des collectivités territoriales;;2012;Entreprises société;Adjudication;2017;49.119146;6.176026
120590057;Cession réalisée;ESPACE AMENAGE; ;59268;HAYNECOURT;NORD;Ministère de la défense;;2012;Collectivités territoriales;Autres droits;2017;50.211349;3.160919
120590070;Cession réalisée;ESPACE NATUREL; ;59273;FRETIN;NORD;Ministère de l'écologie, du développement durable, des transports et du logement;;2012;Entreprises société;Appel d'offres;2017;50.557014;3.133846
120590072;Cession réalisée;LOGEMENT;DES GLYCINES;59310;ORCHIES;NORD;Ministère de l'écologie, du développement durable, des transports et du logement;;2012;Indivision;Gré à gré;2017;50.47427;3.243341
120600000;Cession réalisée;ESPACE NATUREL; ;60390;LA NEUVILLE GARNIER;OISE;Ministère de la défense;;2012;Collectivités territoriales;Droit de priorité;2017;49.332551;2.039911
120600017;Cession réalisée;LOGEMENT; ;60510;LA NEUVILLE EN HEZ;OISE;Ministère de l'agriculture et de la pêche;;2012;Personnes physiques non commerçantes;Adjudication;2017;49.403688;2.323712
120620012;Cession réalisée;BUREAU;DU FAUBOURG D'ARRAS;62450;BAPAUME;PAS-DE-CALAIS;Ministère de l'intérieur, de l'Outre-mer et des collectivités territoriales;;2012;Etablissements publics nationaux;Droit de priorité;2017;50.101797;2.845013
120620030;Cession réalisée;ESPACE AMENAGE; ;62220;EPINOY;PAS-DE-CALAIS;Ministère de la défense;;2012;Collectivités territoriales;Gré à gré;2017;50.487369;2.944448
120620036;Cession réalisée;OUVRAGE D'ART DES RESEAUX ET VOIRIES; ;62220;EPINOY;PAS-DE-CALAIS;Ministère de la défense;;2012;Collectivités territoriales;Autres droits;2017;50.487369;2.944448
120620050;Cession réalisée;ESPACE NATUREL; ;62100;CALAIS;PAS-DE-CALAIS;Ministère de l'écologie, du développement durable, des transports et du logement;;2012;Collectivités territoriales;Droit de priorité;2017;50.946642;1.855514
120630000;Cession réalisée;BUREAU;THOMAS;63000;CLERMONT FERRAND;PUY-DE-DÔME;Ministère de la santé, de la jeunesse, des sports et de la vie associative : santé;;2012;Etablissements publics locaux;Appel d'offres;2017;45.779582;3.086226
120630036;Cession réalisée;BUREAU;PASCAL;63000;CLERMONT FERRAND;PUY-DE-DÔME;Ministère de la culture et de la communication;;2012;Entreprises société;Appel d'offres;2017;45.779582;3.086226
120680009;Cession réalisée;BUREAU;SÉBASTOPOL;68140;MUNSTER;HAUT-RHIN;Ministère de la justice et des libertés;;2012;Entreprises société;Adjudication;2017;48.040635;7.133531
120690012;Cession réalisée;LOGEMENT;PAUL SANTY;69008;LYON 08;RHÔNE;Ministère du Travail, des relations sociales, de la famille et de la solidarité;;2012;Etablissements publics locaux;Droit de priorité;2017;45.730411;4.865417
120690027;Cession réalisée;LOGEMENT;DE GENAS;69500;BRON;RHÔNE;Ministère de l'intérieur, de l'Outre-mer et des collectivités territoriales;;2012;Etablissements publics locaux;Appel d'offres;2017;45.738185;4.912453
120690028;Cession réalisée;ESPACE NATUREL; ;69720;ST LAURENT DE MURE;RHÔNE;Ministère de l'écologie, du développement durable, des transports et du logement;;2012;Entreprises société;Gré à gré;2017;45.685427;5.044287
120690036;Cession réalisée;BUREAU;DE LA LIBERTÉ;69007;LYON 03;RHÔNE;Ministère du budget, des comptes publics et de la réforme de l'Etat;;2012;Entreprises société;Appel d'offres;2017;45.754021;4.842989
120710023;Cession réalisée;LOGEMENT;RHIN DANUBE;71100;CHALON SUR SAONE;SAÔNE-ET-LOIRE;Ministère de la justice et des libertés;;2012;Personnes physiques non commerçantes;Appel d'offres;2017;46.781296;4.853524
120730056;Cession réalisée;ESPACE AMENAGE; ;73190;CHALLES LES EAUX;SAVOIE;Ministère de l'éducation nationale;;2012;Etablissements publics locaux;Droit de priorité;2017;45.547328;5.982912
120740026;Cession réalisée;BUREAU;DE GENEVE;74160;COLLONGES SOUS SALEVE;HAUTE-SAVOIE;Ministère du budget, des comptes publics et de la réforme de l'Etat;;2012;Collectivités territoriales ET  Entreprises société;Droit de priorité;2017;46.140409;6.144798
120740033;Cession réalisée;ESPACE NATUREL;DES USSES;74350;CRUSEILLES;HAUTE-SAVOIE;Ministère de l'écologie, du développement durable, des transports et du logement;;2011;Personnes physiques non commerçantes ET  Collectivités territoriales;Gré à gré;2017;46.033326;6.106324
120750022;Cession réalisée;BUREAU;D'ORSAY;17340;PARIS;PARIS;Ministère de l'enseignement supérieur et de la recherche;;2012;Associations;Gré à gré;2017;46.069378;-1.091352
120760037;Cession réalisée;BUREAU;DES BELGES;76000;ROUEN;SEINE-MARITIME;Ministère de l'écologie, du développement durable, des transports et du logement;;2012;Entreprises société;Appel d'offres;2017;49.442832;1.101763
120760082;Cession réalisée;BUREAU;SAINT VIVIEN;76000;ROUEN;SEINE-MARITIME;Ministère de la défense;;2012;Entreprises société;Appel d'offres;2017;49.442832;1.101763
120770000;Cession réalisée;ESPACE NATUREL;ROYALE;73110;LA ROCHETTE;SEINE-ET-MARNE;Ministère de l'éducation nationale;;2012;Collectivités territoriales;Droit de priorité;2017;45.457986;6.120245
120770001;Cession réalisée;BUREAU;GEORGES CLEMENCEAU - AR 501;77400;LAGNY SUR MARNE;SEINE-ET-MARNE;Ministère de l'écologie, du développement durable, des transports et du logement;;2012;Collectivités territoriales;Droit de priorité;2017;48.877459;2.705498
120770006;Cession réalisée;BATIMENT TECHNIQUE;ST MERRY;77300;FONTAINEBLEAU;SEINE-ET-MARNE;Ministère de la défense;;2012;Entreprises société;Appel d'offres;2017;48.408814;2.701368
120770011;Cession réalisée;BUREAU;RAYMOND POINCARE - AR 503;77400;LAGNY SUR MARNE;SEINE-ET-MARNE;Ministère de l'écologie, du développement durable, des transports et du logement;;2012;Collectivités territoriales;Droit de priorité;2017;48.877459;2.705498
120770024;Cession réalisée;ESPACE NATUREL;LE BOIS RIPAULT;77700;SERRIS;SEINE-ET-MARNE;Ministère de la culture et de la communication;;2012;Etablissements publics locaux;Gré à gré;2017;48.845255;2.786073
120770075;Cession réalisée;LOGEMENT;DAJOT;77000;MELUN;SEINE-ET-MARNE;Ministère de l'écologie, du développement durable, des transports et du logement;;2012;Entreprises société;Adjudication;2017;48.539143;2.658631
120770077;Cession réalisée;BUREAU;VICTOR HUGO;77250;VENEUX LES SABLONS;SEINE-ET-MARNE;Ministère de la justice et des libertés;;2012;Personne physique immatriculée (métropole);Adjudication;2017;48.385431;2.789542
120780030;Cession réalisée;LOGEMENT;CAILLOU MÉRARD;78400;CHATOU;YVELINES;Ministère de l'écologie, du développement durable, des transports et du logement;;2012;Collectivités territoriales;Gré à gré;2017;48.890134;2.155815
120780076;Cession réalisée;LOGEMENT;ROLAND GARROS;78140;VELIZY VILLACOUBLAY;YVELINES;Ministère de la défense;;2012;Entreprises société;Gré à gré;2017;48.783326;2.187486
120790009;Cession réalisée;LOGEMENT;LA TOUR CARRÉE;79400;ST MAIXENT L ECOLE;DEUX-SÈVRES;Biens non affectés;;2012;Etablissements publics locaux;Droit de priorité;2017;46.412593;-0.208687
120800005;Cession réalisée;ESPACE NATUREL;DES AUSTRALIENS;80200;PERONNE;SOMME;Ministère de l'intérieur, de l'Outre-mer et des collectivités territoriales;;2012;Collectivités territoriales;Gré à gré;2017;49.932121;2.935985
120810006;Cession réalisée;BUREAU;DU SEL;81000;ALBI;TARN;Ministère de la culture et de la communication;;2012;Entreprises société;Appel d'offres;2017;43.927955;2.144522
120820003;Cession réalisée;BUREAU;INGRES;82000;MONTAUBAN;TARN-ET-GARONNE;Ministère du budget, des comptes publics et de la réforme de l'Etat;;2012;Entreprises société;Autres droits;2017;44.017035;1.354878
120830020;Cession réalisée;BUREAU;DE MONTFERRAT;83300;DRAGUIGNAN;VAR;Ministère de l'éducation nationale;;2012;Entreprises société;Droit de priorité;2017;43.539447;6.465366
120830045;Cession réalisée;BUREAU;DE L'AGAY;83530;ST RAPHAEL;VAR;Ministère du budget, des comptes publics et de la réforme de l'Etat;;2012;Entreprises société;Adjudication;2017;43.423996;6.767312
120840004;Cession réalisée;ESPACE NATUREL;FOCH;84100;ORANGE;VAUCLUSE;Ministère de la défense;;2012;Collectivités territoriales;Droit de priorité;2017;44.136891;4.808601
120850003;Cession réalisée;BATIMENT SANITAIRE OU SOCIAL;DE LA POINTE - CHEMIN DU FORT;85460;L AIGUILLON SUR MER;VENDÉE;Ministère de la défense;;2012;Collectivités territoriales;Droit de priorité;2017;46.333186;-1.305061
120860024;Cession réalisée;BATIMENT TECHNIQUE; ;86700;COUHE;VIENNE;Ministère de l'écologie, du développement durable, des transports et du logement;;2012;Personnes physiques non commerçantes ET  Entreprises société;Appel d'offres;2017;46.298522;0.180235
120870016;Cession réalisée;LOGEMENT;DU GÉNÉRAL MARTIAL VALIN;87100;LIMOGES;HAUTE-VIENNE;Ministère de la défense;;2010;Entreprises société;Gré à gré;2017;45.833763;1.260768
120880014;Cession réalisée;MONUMENT ET MEMORIAL; ;88200;REMIREMONT;VOSGES;Ministère de la défense;;2009;Collectivités territoriales;Droit de priorité;2017;48.016161;6.589102
120900000;Cession réalisée;BUREAU;DE L'ESPERANCE;90000;BELFORT;TERRITOIRE-DE-BELFORT;Ministère de la culture et de la communication;;2010;Entreprises société;Appel d'offres;2017;47.638062;6.862298
120910012;Cession réalisée;LOGEMENT; ;91460;MARCOUSSIS;ESSONNE;Ministère de la défense;;2012;Entreprises société;Autres droits;2017;48.641484;2.229051
120920004;Cession réalisée;BATIMENT D'ENSEIGNEMENT OU DE SPORT;DES VIGNES;92290;CHATENAY MALABRY;HAUTS-DE-SEINE;Ministère de l'enseignement supérieur et de la recherche;;2012;Collectivités territoriales;Droit de priorité;2017;48.765017;2.277568
120920049;Cession réalisée;BATIMENT D'ENSEIGNEMENT OU DE SPORT;JEAN-BAPTISTE CLEMENT;92290;CHATENAY MALABRY;HAUTS-DE-SEINE;Ministère de l'enseignement supérieur et de la recherche;;2012;Etablissements publics locaux;Droit de priorité;2017;48.765017;2.277568
120930023;Cession réalisée;LOGEMENT;DE LA COURNEUVE;97400;ST DENIS;SEINE-SAINT-DENIS;Ministère de l'intérieur, de l'Outre-mer et des collectivités territoriales;;2012;Entreprises société;Droit de priorité;2017;-20.943522;55.448016
120940003;Cession réalisée;BATIMENT TECHNIQUE;DE PARIS;94160;ST MANDE;VAL-DE-MARNE;Ministère de l'écologie, du développement durable, des transports et du logement;;2012;Collectivités territoriales;Droit de priorité;2017;48.840434;2.418223
129740007;Cession réalisée;BUREAU;DE NICE;97400;ST DENIS;LA REUNION;Ministère du budget, des comptes publics et de la réforme de l'Etat;;2012;Entreprises société;Adjudication;2017;-20.943522;55.448016
129740025;Cession réalisée;ESPACE NATUREL; ;97115;STE ROSE;LA REUNION;Ministère de l'écologie, du développement durable, des transports et du logement;;2012;Collectivités territoriales;Droit de priorité;2017;16.2938;-61.711166
130370010;Cession réalisée;LOGEMENT;DU MARQUIS D'EFFIAT;37130;CINQ MARS LA PILE;INDRE-ET-LOIRE;Ministère de l'écologie, du développement durable, des transports et du logement;;2013;Personnes physiques non commerçantes;Recours à une agence;2017;47.347385;0.460416
130540021;Cession réalisée;ESPACE AMENAGE; ;54700;VILCEY SUR TREY;MEURTHE-ET-MOSELLE;Ministère de l'écologie, du développement durable, des transports et du logement;;2013;Entreprises société;Autres droits;2017;48.933565;5.973458
130590062;Cession réalisée;BUREAU;DE POPERINGHE;59114;STEENVOORDE;NORD;Ministère de l'intérieur, de l'Outre-mer et des collectivités territoriales;;2013;Etablissements publics nationaux;Droit de priorité;2017;50.808545;2.582281
130590064;Cession réalisée;ESPACE NATUREL; ;59790;RONCHIN;NORD;Ministère de l'écologie, du développement durable, des transports et du logement;;2013;Collectivités territoriales;Droit de priorité;2017;50.603725;3.087433
130600011;Cession réalisée;BUREAU;DE LA BANQUE;60000;BEAUVAIS;OISE;Ministère de l'intérieur, de l'Outre-mer et des collectivités territoriales;;2013;Etablissements publics locaux;Droit de priorité;2017;49.433589;2.086266
130660010;Cession réalisée;LOGEMENT;DU VELODROME;66100;PERPIGNAN;PYRÉNÉES-ORIENTALES;Ministère du budget, des comptes publics et de la réforme de l'Etat;;2013;Personnes physiques non commerçantes;Appel d'offres;2017;42.697055;2.893955
130700012;Cession réalisée;BATIMENT SANITAIRE OU SOCIAL;COL DES CROIX;70440;HAUT DU THEM CHATEAU LAMBERT;HAUTE-SAÔNE;Ministère de l'écologie, du développement durable, des transports et du logement;;2013;Personnes physiques non commerçantes;Gré à gré;2017;47.842654;6.721916
130740011;Cession réalisée;ESPACE AMENAGE;DE GENEVE;74100;AMBILLY;HAUTE-SAVOIE;Ministère de l'écologie, du développement durable, des transports et du logement;;2013;Entreprises société;Autres droits;2017;46.194989;6.223199
130770040;Cession réalisée;ESPACE NATUREL;DE LA REPUBLIQUE;77120;COULOMMIERS;SEINE-ET-MARNE;Ministère de l'intérieur, de l'Outre-mer et des collectivités territoriales;;2013;Etablissements publics locaux;Droit de priorité;2017;48.814839;3.083069
130810016;Cession réalisée;ESPACE NATUREL;DE TOULOUSE;81000;ALBI;TARN;Ministère de l'écologie, du développement durable, des transports et du logement;;2013;Entreprises société;Gré à gré;2017;43.927955;2.144522
130830030;Cession réalisée;LOGEMENT;DES CHARDONNERETS;83440;MONTAUROUX;VAR;Biens non affectés;;2013;Personnes physiques non commerçantes;Adjudication;2017;43.617729;6.765166
130910031;Cession réalisée;SUPPORT DE PARCELLE; ;91400;ORSAY;ESSONNE;Ministère de l'écologie, du développement durable, des transports et du logement;;2013;Collectivités territoriales;Droit de priorité;2017;48.697877;2.187455
130950019;Cession réalisée;BATIMENT TECHNIQUE;CESBRON;95640;MARINES;VAL-D'OISE;Ministère de l'intérieur, de l'Outre-mer et des collectivités territoriales;;2013;Etablissements publics locaux;Appel d'offres;2017;49.144182;1.983098
130990115;Cession réalisée;ESPACE NATUREL;KALORAMA ROAD;; ; ;Ministère des affaires étrangères et européennes;;2013;Personnes physiques non commerçantes; ;2017;;
130990125;Cession réalisée;BUREAU;VIJZELGRACHT;; ; ;Ministère des affaires étrangères et européennes;;2013;Entreprises société; ;2017;;
139710029;Cession réalisée;LOGEMENT;DES MOMBINS;39200;ST CLAUDE;GUADELOUPE;Ministère de l'agriculture et de la pêche;;2013;Personnes physiques non commerçantes;Appel d'offres;2017;46.386671;5.862077
139740010;Cession réalisée;ESPACE NATUREL; ;97410;ST PIERRE;LA REUNION;Ministère de l'écologie, du développement durable, des transports et du logement;;2013;Personnes physiques non commerçantes;Gré à gré;2017;-21.309016;55.46848
140080011;Cession réalisée;ESPACE NATUREL;RD 8043;8140;BAZEILLES;ARDENNES;Ministère de l'intérieur, de l'Outre-mer et des collectivités territoriales;;2014;Entreprises société;Appel d'offres;2017;49.677113;4.976173
140130010;Cession réalisée;ESPACE NATUREL; ;13118;ISTRES;BOUCHES-DU-RHÔNE;Ministère de la défense;;2014;Entreprises société;Gré à gré;2017;43.513561;4.988075
140130014;Cession réalisée;BUREAU;MONGIN;13500;MARTIGUES;BOUCHES-DU-RHÔNE;Ministère de l'écologie, du développement durable, des transports et du logement;;2014;Entreprises société;Droit de priorité;2017;43.404463;5.047256
140140026;Cession réalisée;BATIMENT TECHNIQUE;PÈRE CHARLES DE FOUCAULD ;14000;CAEN;CALVADOS;Ministère de l'intérieur, de l'Outre-mer et des collectivités territoriales;;2014;Entreprises société;Gré à gré;2017;49.181339;-0.370637
140170014;Cession réalisée;BUREAU;DE L'ESCALE;17000;LA ROCHELLE;CHARENTE-MARITIME;Ministère du budget, des comptes publics et de la réforme de l'Etat;;2014;Entreprises société;Appel d'offres;2017;46.158506;-1.152489
140210012;Cession réalisée;BATIMENT TECHNIQUE;DÉPARTEMENTALE 905;21130;TILLENAY;CÔTE-D'OR;Ministère de l'écologie, du développement durable, des transports et du logement;;2014;Entreprises société;Appel d'offres;2017;47.18021;5.352031
140290013;Cession réalisée;ESPACE NATUREL; ;29700;PLUGUFFAN;FINISTÈRE;Ministère de la justice et des libertés;;2014;Personnes physiques non commerçantes;Gré à gré;2017;47.980583;-4.179465
140290014;Cession réalisée;LOGEMENT;DU BOUT DU PONT;29140;ROSPORDEN;FINISTÈRE;Ministère de l'intérieur, de l'Outre-mer et des collectivités territoriales;;2014;Etablissements publics locaux;Appel d'offres;2017;47.960503;-3.835073
1402A0011;Cession réalisée;ESPACE AMENAGE; ;20128;GROSSETO PRUGNA;CORSE-DU-SUD;Ministère de l'écologie, du développement durable, des transports et du logement;;2014;Personnes physiques non commerçantes;Adjudication;2017;41.870947;8.963272
140330017;Cession réalisée;ESPACE NATUREL;33470 GUJAN MESTRAS;33470;GUJAN MESTRAS;GIRONDE;Ministère de l'écologie, du développement durable, des transports et du logement;;2014;Collectivités territoriales;Droit de priorité;2017;44.635116;-1.067986
140340010;Cession réalisée;LOGEMENT;CALQUIERES BASSES;34120;PEZENAS;HÉRAULT;Ministère de l'écologie, du développement durable, des transports et du logement;;2014;Collectivités territoriales;Droit de priorité;2017;43.458975;3.422393
140340023;Cession réalisée;LOGEMENT;DE L'ÉCOLE DE L'AGRICULTURE;34070;MONTPELLIER;HÉRAULT;Ministère de la justice et des libertés;;2014;Personnes physiques non commerçantes;VNI;2017;43.611024;3.875521
140350021;Cession réalisée;ESPACE NATUREL;DE GUINES;35700;RENNES;ILLE-ET-VILAINE;Ministère de la défense;;2014;Collectivités territoriales;Droit de priorité;2017;48.113844;-1.681632
140380018;Cession réalisée;LOGEMENT;DU FRANCILLON;38690;LONGECHENAL;ISÈRE;Biens non affectés;;2014;Personnes physiques non commerçantes;Adjudication;2017;45.418283;5.346561
140430013;Cession réalisée;ESPACE NATUREL; ;43390;AUZON;HAUTE-LOIRE;Ministère de l'écologie, du développement durable, des transports et du logement;;2014;Personnes physiques non commerçantes;Appel d'offres;2017;45.390898;3.37061
140440028;Cession réalisée;BUREAU;EUGÈNE ORIEUX NX 47;44300;NANTES;LOIRE-ATLANTIQUE;Ministère de l'intérieur, de l'Outre-mer et des collectivités territoriales;;2014;Personnes physiques non commerçantes;Appel d'offres;2017;47.216354;-1.554456
140490011;Cession réalisée;BATIMENT D'ENSEIGNEMENT OU DE SPORT;GENERAL BIZOT;49100;ANGERS;MAINE-ET-LOIRE;Ministère de la défense;;2014;Etablissements publics locaux;Droit de priorité;2017;47.47207;-0.556585
140540015;Cession réalisée;ESPACE NATUREL; ;54350;MONT ST MARTIN;MEURTHE-ET-MOSELLE;Ministère de l'écologie, du développement durable, des transports et du logement;;2014;Entreprises société;Autres droits;2017;49.540024;5.779156
140580010;Cession réalisée;LOGEMENT;JEAN-BAPTISTE MACHECOURT;58260;LA MACHINE;NIÈVRE;Biens non affectés;;2014;Personnes physiques non commerçantes;Appel d'offres;2017;46.888941;3.464919
140590025;Cession réalisée;ESPACE NATUREL; ;59810;LESQUIN;NORD;Ministère de l'écologie, du développement durable, des transports et du logement;;2014;Entreprises société;Appel d'offres;2017;50.589348;3.109965
140600011;Cession réalisée;LOGEMENT;SIMONE SIGNORET;60000;BEAUVAIS;OISE;Ministère de la défense;;2014;Personnes physiques non commerçantes;Adjudication;2017;49.433589;2.086266
140620021;Cession réalisée;LOGEMENT;DE PICARDIE;62520;LE TOUQUET PARIS PLAGE;PAS-DE-CALAIS;Ministère de l'écologie, du développement durable, des transports et du logement;;2014;Collectivités territoriales;Droit de priorité;2017;50.522975;1.58493
140690010;Cession réalisée;LOGEMENT;DE BALMONT;69005;LYON 09;RHÔNE;Ministère de l'éducation nationale;;2014;Personnes physiques non commerçantes;Adjudication;2017;45.759292;4.824108
140690020;Cession réalisée;ESPACE NATUREL; ;69720;ST LAURENT DE MURE;RHÔNE;Ministère de l'écologie, du développement durable, des transports et du logement;;2014;Collectivités territoriales;Appel d'offres;2017;45.685427;5.044287
140710016;Cession réalisée;LOGEMENT;DU CANAL;71210;ECUISSES;SAÔNE-ET-LOIRE;Biens non affectés;;2014;Personnes physiques non commerçantes;Appel d'offres;2017;46.759244;4.514666
140740016;Cession réalisée;BUREAU;DU PARMELAN;74000;ANNECY;HAUTE-SAVOIE;Ministère de la justice et des libertés;;2014;Collectivités territoriales;Droit de priorité;2017;45.898404;6.129695
140750021;Cession réalisée;BATIMENT TECHNIQUE;JEAN JAURES;75019;PARIS 19;PARIS;Ministère de l'intérieur, de l'Outre-mer et des collectivités territoriales;;2014;Etablissements publics locaux;Droit de priorité;2017;48.877788;2.384718
140830014;Cession réalisée;ESPACE NATUREL; ;83300;DRAGUIGNAN;VAR;Ministère de la défense;;2014;Collectivités territoriales;Droit de priorité;2017;43.539447;6.465366
140830019;Cession réalisée;RESEAUX ET VOIRIES; ;83000;TOULON;VAR;Ministère de l'écologie, du développement durable, des transports et du logement;;2014;Collectivités territoriales;Droit de priorité;2017;43.124011;5.930466
140910019;Cession réalisée;ESPACE NATUREL;RIGOLES DE SACLAY;91190;VILLIERS LE BACLE;ESSONNE;Ministère de la défense;;2014;Collectivités territoriales;Autres droits;2017;48.725316;2.12449
140910022;Cession réalisée;RESEAUX ET VOIRIES; ;91220;LE PLESSIS PATE;ESSONNE;Ministère de l'écologie, du développement durable, des transports et du logement;;2014;Collectivités territoriales;Autres droits;2017;48.613301;2.328499
140910031;Cession réalisée;LOGEMENT;LAVOISIER;91710;VERT LE PETIT;ESSONNE;Ministère de la défense;;2014;Personnes physiques non commerçantes;Appel d'offres;2017;48.551436;2.365876
140910038;Cession réalisée;LOGEMENT;CHARLES MICHELS;91740;PUSSAY;ESSONNE;Ministère de la défense;;2014;Entreprises société;VNI;2017;48.348219;1.991732
140930012;Cession réalisée;RESEAUX ET VOIRIES;SUZANNE MASSON;93120;LA COURNEUVE;SEINE-SAINT-DENIS;Ministère des affaires étrangères et européennes;;2014;Collectivités territoriales;Autres droits;2017;48.931152;2.395371
140990163;Cession réalisée;LOGEMENT;WEST;; ; ;Ministère de l'économie, de l'industrie et de l'emploi;;2014;Personnes physiques non commerçantes; ;2017;;
140990170;Cession réalisée;BUREAU;PRERADOVICEVA;; ; ;Ministère de l'économie, de l'industrie et de l'emploi;;2014;Associations; ;2017;;
140990180;Cession réalisée;LOGEMENT;DE L'AEROPORT DE BATA;; ; ;Ministère des affaires étrangères et européennes;;2014;Personnes physiques non commerçantes; ;2017;;
140990189;Cession réalisée;BUREAU;AL GHAZALI AL HATIMI;; ; ;Ministère des affaires étrangères et européennes;;2014;Entreprises société; ;2017;;
140990198;Cession réalisée;LOGEMENT; ;; ; ;Ministère de l'économie, de l'industrie et de l'emploi;;2014;Entreprises société; ;2017;;
149710029;Cession réalisée;LOGEMENT;DES MOMBINS;39200;ST CLAUDE;GUADELOUPE;Ministère de l'agriculture et de la pêche;;2014;Entreprises société;Appel d'offres;2017;46.386671;5.862077
149710030;Cession réalisée;LOGEMENT;DES MOMBINS;39200;ST CLAUDE;GUADELOUPE;Ministère de l'écologie, du développement durable, des transports et du logement;;2014;Personnes physiques non commerçantes;Appel d'offres;2017;46.386671;5.862077
149740010;Cession réalisée;ESPACE NATUREL;DU CHEF DE BATAILLON LAMBERT;97400;ST DENIS;LA REUNION;Ministère de l'écologie, du développement durable, des transports et du logement;;2014;Collectivités territoriales;Gré à gré;2017;-20.943522;55.448016
149740030;Cession réalisée;ESPACE NATUREL;NATIONALE 2;29140;ST PHILIPPE;LA REUNION;Ministère de l'écologie, du développement durable, des transports et du logement;;2014;Entreprises société;Adjudication;2017;47.958112;-3.900402
150040012;Cession réalisée;ESPACE NATUREL;MORIEZ;4170;MORIEZ;ALPES DE HAUTE-PROVENCE;Ministère de l'écologie, du développement durable, des transports et du logement;;2015;Personne physique immatriculée (métropole);Gré à gré;2017;43.960843;6.469787
150040014;Cession réalisée;LOGEMENT;DIGNE LES BAINS;4000;DIGNE LES BAINS;ALPES DE HAUTE-PROVENCE;Ministère de l'économie, de l'industrie et de l'emploi;;2015;Personnes physiques non commerçantes;Appel d'offres;2017;44.092343;6.235322
150050012;Cession réalisée;LOGEMENT;DES SAGNIERES;5000;GAP;HAUTES ALPES;Ministère de la défense;;2015;Personnes physiques non commerçantes;Autres droits;2017;44.558135;6.076794
150050015;Cession réalisée;LOGEMENT; ;5560;VARS;HAUTES ALPES;Biens non affectés;;2015;Personnes physiques non commerçantes;Appel d'offres;2017;44.594338;6.689133
150120017;Cession réalisée;ESPACE NATUREL; ;12150;SEVERAC LE CHATEAU;AVEYRON;Ministère de l'écologie, du développement durable, des transports et du logement;;2015;Personnes physiques non commerçantes;Appel d'offres;2017;44.269161;3.110128
150120021;Cession réalisée;ESPACE NATUREL; ;12200;VILLEFRANCHE DE ROUERGUE;AVEYRON;Ministère de l'écologie, du développement durable, des transports et du logement;;2015;Personnes physiques non commerçantes;Appel d'offres;2017;44.351892;2.033987
150130028;Cession réalisée;LOGEMENT;DE SARNÈGUE;13310;ST CHAMAS;BOUCHES-DU-RHÔNE;Ministère de l'écologie, du développement durable, des transports et du logement;;2015;Entreprises société;Droit de priorité;2017;43.633531;4.956534
150130033;Cession réalisée;BATIMENT TECHNIQUE;DES RAYETTES;13500;MARTIGUES;BOUCHES-DU-RHÔNE;Ministère de l'écologie, du développement durable, des transports et du logement;;2015;Personnes physiques non commerçantes;Recours à une agence;2017;43.404463;5.047256
150150010;Cession réalisée;BUREAU;JEAN VIGIER;15300;MURAT;CANTAL;Ministère de l'écologie, du développement durable, des transports et du logement;;2015;Entreprises société;Appel d'offres;2017;45.109598;2.86776
150170012;Cession réalisée;ESPACE NATUREL;DENFERT ROCHEREAU;17000;LA ROCHELLE;CHARENTE-MARITIME;Ministère de l'écologie, du développement durable, des transports et du logement;;2015;Personnes physiques non commerçantes;Gré à gré;2017;46.158506;-1.152489
150170016;Cession réalisée;ESPACE NATUREL; ;17600;SAUJON;CHARENTE-MARITIME;Ministère de l'écologie, du développement durable, des transports et du logement;;2015;Entreprises société;Appel d'offres;2017;45.670608;-0.92809
150250016;Cession réalisée;BUREAU;XAVIER MARMIER;25000;BESANCON;DOUBS;Biens non affectés;;2015;Personnes physiques non commerçantes;Gré à gré;2017;47.242188;6.02007
150280010;Cession réalisée;BATIMENT TECHNIQUE; ;28100;DREUX;EURE-ET-LOIR;Ministère de l'intérieur, de l'Outre-mer et des collectivités territoriales;;2015;Collectivités territoriales;Droit de priorité;2017;48.736225;1.365471
1502A0011;Cession réalisée;LOGEMENT; ;20167;AJACCIO;CORSE-DU-SUD;Ministère de la défense;;2015;Collectivités territoriales;Droit de priorité;2017;41.92499;8.735937
1502A0012;Cession réalisée;LOGEMENT;CUNEO D'ORNANO;20167;AJACCIO;CORSE-DU-SUD;Ministère de l'écologie, du développement durable, des transports et du logement;;2015;Personnes physiques non commerçantes;Adjudication;2017;41.92499;8.735937
1502B0014;Cession réalisée;ESPACE NATUREL; ;20275;ERSA;HAUTE CORSE;Ministère de l'écologie, du développement durable, des transports et du logement;;2015;Collectivités territoriales;Droit de priorité;2017;42.974707;9.379302
150300010;Cession réalisée;BUREAU;BOISSIER DE SAUVAGES;30100;ALES;GARD;Ministère de la justice et des libertés;;2015;Collectivités territoriales;Droit de priorité;2017;44.126689;4.079657
150310013;Cession réalisée;ESPACE AMENAGE;ARMAND DUPORTAL;31500;TOULOUSE;HAUTE-GARONNE;Ministère de l'intérieur, de l'Outre-mer et des collectivités territoriales;;2015;Etablissements publics nationaux;Gré à gré;2017;43.604268;1.441019
150330026;Cession réalisée;ESPACE NATUREL;MARYSE BASTIÉ - 33520 BRUGES;33520;BRUGES;GIRONDE;Ministère de l'écologie, du développement durable, des transports et du logement;;2015;Collectivités territoriales;Droit de priorité;2017;44.882549;-0.613007
150350021;Cession réalisée;LOGEMENT;DU PARC - PAVILLON;35400;ST MALO;ILLE-ET-VILAINE;Ministère de l'écologie, du développement durable, des transports et du logement;;2015;Entreprises société;Adjudication;2017;48.646653;-2.009511
150350022;Cession réalisée;SUPPORT DE PARCELLE;DU PARC - PARCELLE J 1187 (EX J215);35400;ST MALO;ILLE-ET-VILAINE;Ministère de l'écologie, du développement durable, des transports et du logement;;2015;Entreprises société;Adjudication;2017;48.646653;-2.009511
150350023;Cession réalisée;SUPPORT DE PARCELLE;DU PARC - PARCELLE J 1190 (EX J217);35400;ST MALO;ILLE-ET-VILAINE;Ministère de l'écologie, du développement durable, des transports et du logement;;2015;Entreprises société;Adjudication;2017;48.646653;-2.009511
150360011;Cession réalisée;BATIMENT TECHNIQUE; ;16700;RUFFEC;INDRE;Ministère de l'écologie, du développement durable, des transports et du logement;;2015;Collectivités territoriales;Gré à gré;2017;46.027743;0.198003
150510015;Cession réalisée;RESEAUX ET VOIRIES;CHALONS EN CHAMPAGNE;51000;CHALONS EN CHAMPAGNE;MARNE;Ministère de l'écologie, du développement durable, des transports et du logement;;2015;Collectivités territoriales;Droit de priorité;2017;48.956391;4.364203
150540015;Cession réalisée;LOGEMENT;CARREFOUR ROUTE FORESTIÈRE DE MARTINVAUX & RD 92;54230;MARON;MEURTHE-ET-MOSELLE;Ministère de l'agriculture et de la pêche;;2015;Personnes physiques non commerçantes;Recours à une agence;2017;48.633825;6.046051
150540067;Cession réalisée;ESPACE NATUREL;PARCELLE ZH 330;54450;BENAMENIL;MEURTHE-ET-MOSELLE;Ministère de l'écologie, du développement durable, des transports et du logement;;2015;Collectivités territoriales;Gré à gré;2017;48.569301;6.673138
150540068;Cession réalisée;ESPACE NATUREL;PARCELLE ZH 331;54450;BENAMENIL;MEURTHE-ET-MOSELLE;Ministère de l'écologie, du développement durable, des transports et du logement;;2015;Collectivités territoriales;Gré à gré;2017;48.569301;6.673138
150540070;Cession réalisée;ESPACE NATUREL;ROUTE NATIONALE;54920;VILLERS LA MONTAGNE;MEURTHE-ET-MOSELLE;Ministère de l'écologie, du développement durable, des transports et du logement;;2015;Personnes physiques non commerçantes;Autres droits;2017;49.470712;5.820951
150550010;Cession réalisée;LOGEMENT;D 65 LIEU-DIT LA CHANNÉELERIE;55150;GREMILLY;MEUSE;Ministère de l'agriculture et de la pêche;;2015;Personnes physiques non commerçantes;Appel d'offres;2017;49.276804;5.476296
150560017;Cession réalisée;ESPACE NATUREL;DE KERNER;56670;RIANTEC;MORBIHAN;Ministère de l'écologie, du développement durable, des transports et du logement;;2015;Personnes physiques non commerçantes;Gré à gré;2017;47.710005;-3.310419
150560018;Cession réalisée;ESPACE NATUREL;DE KERNER;56670;RIANTEC;MORBIHAN;Ministère de l'écologie, du développement durable, des transports et du logement;;2015;Personnes physiques non commerçantes;Gré à gré;2017;47.710005;-3.310419
150570020;Cession réalisée;BUREAU;VERLAINE;57340;MORHANGE;MOSELLE;Ministère de l'écologie, du développement durable, des transports et du logement;;2015;Entreprises société;Adjudication;2017;48.923405;6.635307
150590014;Cession réalisée;RESEAUX ET VOIRIES;A23;59494;PETITE FORET;NORD;Ministère de l'écologie, du développement durable, des transports et du logement;;2015;Collectivités territoriales;Droit de priorité;2017;50.370362;3.474453
150590018;Cession réalisée;ESPACE NATUREL; ;59146;PECQUENCOURT;NORD;Ministère de l'écologie, du développement durable, des transports et du logement;;2015;Collectivités territoriales;Droit de priorité;2017;50.376473;3.214792
150590025;Cession réalisée;ESPACE NATUREL;JEAN JAURES;59810;LESQUIN;NORD;Ministère de l'écologie, du développement durable, des transports et du logement;;2015;Entreprises société;Appel d'offres;2017;50.589348;3.109965
150590026;Cession réalisée;BUREAU;CORBEAU;59590;RAISMES;NORD;Ministère de la justice et des libertés;;2015;Entreprises société;Appel d'offres;2017;50.388273;3.485855
150620014;Cession réalisée;ESPACE NATUREL; ;62130;GAUCHIN VERLOINGT;PAS-DE-CALAIS;Biens non affectés;;2015;Personnes physiques non commerçantes;Gré à gré;2017;50.394494;2.31185
150630011;Cession réalisée;BUREAU;DU PONT;63800;PERIGNAT SUR ALLIER;PUY-DE-DÔME;Ministère de l'écologie, du développement durable, des transports et du logement;;2015;Etablissements publics locaux;Droit de priorité;2017;45.72805;3.231436
150630015;Cession réalisée;ESPACE NATUREL; ;24150;ST SULPICE;PUY-DE-DÔME;Ministère de l'écologie, du développement durable, des transports et du logement;;2015;Personnes physiques non commerçantes;Appel d'offres;2017;44.837134;0.701813
150660012;Cession réalisée;LOGEMENT;ARAGO;66100;PERPIGNAN;PYRÉNÉES-ORIENTALES;Ministère du budget, des comptes publics et de la réforme de l'Etat;;2015;Personnes physiques non commerçantes;Appel d'offres;2017;42.697055;2.893955
150670016;Cession réalisée;BATIMENT TECHNIQUE;DE LA MESANGE TRANSFORMATEUR;67110;NIEDERBRONN LES BAINS;BAS-RHIN;Ministère de l'agriculture et de la pêche;;2015;Collectivités territoriales;Droit de priorité;2017;48.949791;7.643424
150670017;Cession réalisée;RESEAUX ET VOIRIES;DU MARECHAL KELLERMANN;67120;MOLSHEIM;BAS-RHIN;Ministère de la justice et des libertés;;2015;Entreprises société;Gré à gré;2017;48.542074;7.491928
150680012;Cession réalisée;LOGEMENT;DES AMERICAINS;68000;COLMAR;HAUT-RHIN;Ministère de la justice et des libertés;;2015;Personnes physiques non commerçantes;Adjudication;2017;48.080428;7.354505
150690011;Cession réalisée;BATIMENT TECHNIQUE;VALENTIN COUTURIER;69002;LYON 04;RHÔNE;Ministère de l'éducation nationale;;2015;Entreprises société;Appel d'offres;2017;45.75245;4.827924
150710016;Cession réalisée;LOGEMENT; ;71960;SOLUTRE POUILLY;SAÔNE-ET-LOIRE;Ministère de la culture et de la communication;;2015;Entreprises société;Adjudication;2017;46.296057;4.724038
150720012;Cession réalisée;BUREAU;DU GOULARD;72500;CHATEAU DU LOIR;SARTHE;Ministère de l'écologie, du développement durable, des transports et du logement;;2015;Collectivités territoriales;Adjudication;2017;47.698468;0.428225
150740014;Cession réalisée;ESPACE NATUREL;ANCIENNE ROUTE DE LYON;74160;ST JULIEN EN GENEVOIS;HAUTE-SAVOIE;Ministère de l'écologie, du développement durable, des transports et du logement;;2015;Collectivités territoriales;Droit de priorité;2017;46.143878;6.084061
150780039;Cession réalisée;ESPACE NATUREL;DE BELLEVUE;78400;CHATOU;YVELINES;Ministère de l'écologie, du développement durable, des transports et du logement;;2015;Etablissements publics locaux;Appel d'offres;2017;48.890134;2.155815
150810013;Cession réalisée;ESPACE NATUREL;GEORGES BRASSENS;81000;ALBI;TARN;Ministère de l'écologie, du développement durable, des transports et du logement;;2015;Personnes physiques non commerçantes;Gré à gré;2017;43.927955;2.144522
150860012;Cession réalisée;BATIMENT D'ENSEIGNEMENT OU DE SPORT;DOMAINE DE SAINT-HILAIRE;86120;ROIFFE;VIENNE;Ministère du Travail, des relations sociales, de la famille et de la solidarité;;2015;Entreprises société;Appel d'offres;2017;47.124203;0.051224
150950027;Cession réalisée;LOGEMENT;DE SOISY;95600;EAUBONNE;VAL-D'OISE;Ministère du budget, des comptes publics et de la réforme de l'Etat;;2015;Personnes physiques non commerçantes;Appel d'offres;2017;48.990757;2.278529
150990202;Cession réalisée;LOGEMENT;CARLYLE MANSIONS, CHEYNE WALK;; ; ;Ministère des affaires étrangères et européennes;;2015;Personnes physiques non commerçantes; ;2017;;
150990208;Cession réalisée;BUREAU; ;; ; ;Ministère de l'économie, de l'industrie et de l'emploi;;2015;Entreprises société; ;2017;;
159710012;Cession réalisée;ESPACE NATUREL;GUSTAVIA;4210;ST BARTHELEMY;GUADELOUPE;Biens non affectés;;2015;Collectivités territoriales;Droit de priorité;2017;43.834099;5.976635
160040015;Cession réalisée;ESPACE NATUREL; ;4120;SOLEILHAS;ALPES DE HAUTE-PROVENCE;Biens non affectés;;2016;Entreprises société;Appel d'offres;2017;43.856806;6.648959
160050010;Cession réalisée;ESPACE AMENAGE;GEORGES POMPIDOU;5000;GAP;HAUTES ALPES;Ministère du budget, des comptes publics et de la réforme de l'Etat;;2016;Etablissements publics locaux;Appel d'offres;2017;44.558135;6.076794
160050011;Cession réalisée;ESPACE NATUREL; ;5100;BRIANCON;HAUTES ALPES;Ministère de l'intérieur, de l'Outre-mer et des collectivités territoriales;;2016;Collectivités territoriales;Droit de priorité;2017;44.895379;6.634121
160050012;Cession réalisée;BATIMENT TECHNIQUE;POMPIDOU COPROPRIÉTÉ LES RIVES DE LA LUYE;5000;GAP;HAUTES ALPES;Ministère du budget, des comptes publics et de la réforme de l'Etat;;2016;Personnes physiques non commerçantes;Appel d'offres;2017;44.558135;6.076794
160050013;Cession réalisée;BATIMENT TECHNIQUE;GEORGES POMPIDOU, COPROPRIÉTÉ LES RIVES DE LA LUYE;5000;GAP;HAUTES ALPES;Ministère du budget, des comptes publics et de la réforme de l'Etat;;2016;Personnes physiques non commerçantes;Appel d'offres;2017;44.558135;6.076794
160050014;Cession réalisée;BATIMENT TECHNIQUE;GEORGES POMPIDOU, COPROPRIÉTÉ LES RIVES DE LA LUYE;5000;GAP;HAUTES ALPES;Ministère du budget, des comptes publics et de la réforme de l'Etat;;2016;Personnes physiques non commerçantes;Appel d'offres;2017;44.558135;6.076794
160070012;Cession réalisée;LOGEMENT;DE L'ALEYSSONNE;7000;VEYRAS;ARDÈCHE;Ministère de l'intérieur, de l'Outre-mer et des collectivités territoriales;;2016;Entreprises société;Appel d'offres;2017;44.73315;4.559943
160090010;Cession réalisée;LOGEMENT; ;9460;QUERIGUT;ARIÈGE;Ministère de l'écologie, du développement durable, des transports et du logement;;2016;Personnes physiques non commerçantes;Appel d'offres;2017;42.698702;2.097961
160100011;Cession réalisée;ESPACE NATUREL;RD 671;10800;BUCHERES;AUBE;Ministère de l'écologie, du développement durable, des transports et du logement;;2016;Collectivités territoriales;Droit de priorité;2017;48.235721;4.11118
160110011;Cession réalisée;BUREAU;ANATOLE FRANCE;11500;QUILLAN;AUDE;Ministère du budget, des comptes publics et de la réforme de l'Etat;;2016;Collectivités territoriales;Droit de priorité;2017;42.874717;2.180817
160110012;Cession réalisée;ESPACE NATUREL; ;11200;MONTSERET;AUDE;Biens non affectés;;2016;Collectivités territoriales;Droit de priorité;2017;43.102508;2.809745
160110013;Cession réalisée;ESPACE NATUREL;RURAL N°1;11800;BARBAIRA;AUDE;Biens non affectés;;2016;Collectivités territoriales;Droit de priorité;2017;43.184323;2.512008
160120017;Cession réalisée;LOGEMENT;CITE EDF;12500;LASSOUTS;AVEYRON;Biens non affectés;;2016;Entreprises société;Appel d'offres;2017;44.485674;2.862932
160130011;Cession réalisée;LOGEMENT;ANSE DU PHARO;17000;MARSEILLE 07;BOUCHES-DU-RHÔNE;Ministère de l'écologie, du développement durable, des transports et du logement;;2016;Collectivités territoriales;Droit de priorité;2017;46.160239;-1.126617
160130015;Cession réalisée;BATIMENT TECHNIQUE;DE BOIGNE;11300;MARSEILLE 11;BOUCHES-DU-RHÔNE;Biens non affectés;;2016;Entreprises société;Recours à une agence;2017;43.072286;2.228833
160130016;Cession réalisée;ESPACE NATUREL;ROUTE DÉPARTEMENTALE 8;13170;LES PENNES MIRABEAU;BOUCHES-DU-RHÔNE;Biens non affectés;;2016;Personnes physiques non commerçantes;Autres droits;2017;43.41002;5.30793
160130019;Cession réalisée;BUREAU;BELNET;13012;MARSEILLE 12;BOUCHES-DU-RHÔNE;Ministère de l'écologie, du développement durable, des transports et du logement;;2016;Collectivités territoriales;Droit de priorité;2017;43.306695;5.429042
160130020;Cession réalisée;BATIMENT TECHNIQUE; ;13013;MARSEILLE 09;BOUCHES-DU-RHÔNE;Ministère de la défense;;2016;Collectivités territoriales;Gré à gré;2017;43.332579;5.432372
160140019;Cession réalisée;ESPACE NATUREL;513;14600;HONFLEUR;CALVADOS;Ministère de l'écologie, du développement durable, des transports et du logement;;2016;Collectivités territoriales;Droit de priorité;2017;49.418893;0.232896
160140021;Cession réalisée;BUREAU;ALBERT PREMIER;14360;TROUVILLE SUR MER;CALVADOS;Ministère de l'écologie, du développement durable, des transports et du logement;;2016;Collectivités territoriales;Droit de priorité;2017;49.366763;0.081442
160140026;Cession réalisée;ESPACE NATUREL;SEULLINE;14310;COULVAIN;CALVADOS;Ministère de l'écologie, du développement durable, des transports et du logement;;2016;Personnes physiques non commerçantes;Gré à gré;2017;49.055675;-0.704238
160140028;Cession réalisée;LOGEMENT;HAUTE;14600;HONFLEUR;CALVADOS;Ministère de l'écologie, du développement durable, des transports et du logement;;2016;Entreprises société;VNI;2017;49.418893;0.232896
160150011;Cession réalisée;BUREAU;DU SQUARE;15000;AURILLAC;CANTAL;Ministère de la justice et des libertés;;2016;Collectivités territoriales;Gré à gré;2017;44.924581;2.438564
160160017;Cession réalisée;ESPACE NATUREL; ;82100;ST MEDARD;CHARENTE;Ministère de l'écologie, du développement durable, des transports et du logement;;2016;Collectivités territoriales;Autres droits;2017;44.071713;1.086292
160160018;Cession réalisée;ESPACE NATUREL; ;16260;CHASSENEUIL SUR BONNIEURE;CHARENTE;Ministère de l'écologie, du développement durable, des transports et du logement;;2016;Personnes physiques non commerçantes;Autres droits;2017;45.823755;0.449351
160170010;Cession réalisée;ESPACE NATUREL;MONTCALM;17000;LA ROCHELLE;CHARENTE-MARITIME;Ministère de l'écologie, du développement durable, des transports et du logement;;2016;Entreprises société;Appel d'offres;2017;46.158506;-1.152489
160170015;Cession réalisée;ESPACE NATUREL; ;17600;PISANY;CHARENTE-MARITIME;Ministère de l'écologie, du développement durable, des transports et du logement;;2016;Personnes physiques non commerçantes;Appel d'offres;2017;45.700846;-0.782273
160170016;Cession réalisée;ESPACE NATUREL; ;19170;ST SAUVANT;CHARENTE-MARITIME;Ministère de l'écologie, du développement durable, des transports et du logement;;2016;Personnes physiques non commerçantes;Appel d'offres;2017;45.582271;1.826904
160170017;Cession réalisée;ESPACE NATUREL; ;17630;LA FLOTTE;CHARENTE-MARITIME;Biens non affectés;;2016;Associations;Gré à gré;2017;46.186297;-1.325979
160170022;Cession réalisée;BATIMENT D'ENSEIGNEMENT OU DE SPORT;POUZET;17300;ROCHEFORT;CHARENTE-MARITIME;Ministère de l'intérieur, de l'Outre-mer et des collectivités territoriales;;2016;Collectivités territoriales;Droit de priorité;2017;45.941496;-0.968099
160180017;Cession réalisée;LOGEMENT;DE SOUDRAIN MAISON FORESTIERE DE SOUDRAIN;18340;STE LUNAISE;CHER;Ministère de l'agriculture et de la pêche;;2016;Personnes physiques non commerçantes;Appel d'offres;2017;46.919549;2.348216
160210013;Cession réalisée;ESPACE NATUREL; ;21000;DIJON;CÔTE-D'OR;Ministère de l'écologie, du développement durable, des transports et du logement;;2016;Entreprises société;Droit de priorité;2017;47.322982;5.041742
160210016;Cession réalisée;ESPACE NATUREL; ;21370;VELARS SUR OUCHE;CÔTE-D'OR;Ministère de l'écologie, du développement durable, des transports et du logement;;2016;Collectivités territoriales;Droit de priorité;2017;47.319921;4.903901
160220039;Cession réalisée;LOGEMENT;KERMARQUER;22740;LEZARDRIEUX;CÔTES D'ARMOR;Ministère de l'écologie, du développement durable, des transports et du logement;;2016;Personnes physiques non commerçantes;Gré à gré;2017;48.784776;-3.107493
160220043;Cession réalisée;ESPACE NATUREL; ;22210;LA PRENESSAYE;CÔTES D'ARMOR;Ministère de l'écologie, du développement durable, des transports et du logement;;2016;Personnes physiques non commerçantes;Gré à gré;2017;48.183054;-2.63434
160250017;Cession réalisée;ESPACE NATUREL;DE LYON;25720;BEURE;DOUBS;Ministère de l'écologie, du développement durable, des transports et du logement;;2016;Personnes physiques non commerçantes;Appel d'offres;2017;47.207481;6.003579
160250019;Cession réalisée;ESPACE NATUREL;VILLARS LES BLAMONT;25310;VILLARS LES BLAMONT;DOUBS;Ministère de l'économie, de l'industrie et de l'emploi;;2016;Collectivités territoriales;Droit de priorité;2017;47.372763;6.872368
160250020;Cession réalisée;ESPACE NATUREL;VILLARS LES BLAMONT;25310;VILLARS LES BLAMONT;DOUBS;Ministère de l'économie, de l'industrie et de l'emploi;;2016;Personnes physiques non commerçantes;Appel d'offres;2017;47.372763;6.872368
160250023;Cession réalisée;ESPACE NATUREL; ;25260;LONGEVELLE SUR DOUBS;DOUBS;Biens non affectés;;2016;Collectivités territoriales;Droit de priorité;2017;47.452028;6.650906
160260011;Cession réalisée;BATIMENT TECHNIQUE;CHABEUIL;26000;VALENCE;DRÔME;Ministère de la justice et des libertés;;2016;Etablissements publics locaux;Droit de priorité;2017;44.932441;4.890048
160270015;Cession réalisée;LOGEMENT;VICINAL N° 70 / MAISON FORESTIÈRE DES MAISONS BLANCHES;27480;LYONS LA FORET;EURE;Ministère de l'agriculture et de la pêche;;2016;Personnes physiques non commerçantes;Adjudication;2017;49.398668;1.475326
160280013;Cession réalisée;LOGEMENT;D 941;28250;SENONCHES;EURE-ET-LOIR;Ministère de l'agriculture et de la pêche;;2016;Personnes physiques non commerçantes;Gré à gré;2017;48.561092;1.029334
160280015;Cession réalisée;LOGEMENT;D 25 MAISON FORESTIÈRE LA BILLETTE;28240;BELHOMERT GUEHOUVILLE;EURE-ET-LOIR;Ministère de l'agriculture et de la pêche;;2016;Personnes physiques non commerçantes;Appel d'offres;2017;48.503961;1.057209
160280016;Cession réalisée;ESPACE NATUREL; ;28270;LAONS;EURE-ET-LOIR;Ministère du budget, des comptes publics et de la réforme de l'Etat;;2016;Entreprises société;Appel d'offres;2017;48.703793;1.176194
160290010;Cession réalisée;BUREAU;DU BRADEN;29000;QUIMPER;FINISTÈRE;Ministère de la justice et des libertés;;2016;Associations;Gré à gré;2017;47.995479;-4.098022
160290014;Cession réalisée;ESPACE NATUREL; ;29550;PLOMODIERN;FINISTÈRE;Biens non affectés;;2016;Collectivités territoriales;Gré à gré;2017;48.180651;-4.232409
160290015;Cession réalisée;ESPACE NATUREL;DE LA CORNICHE;29200;BREST;FINISTÈRE;Ministère de la défense;;2016;Collectivités territoriales;Droit de priorité;2017;48.389729;-4.487808
160290016;Cession réalisée;ESPACE NATUREL;JEAN MOULIN ET BVD FRANÇAIS LIBRES;29200;BREST;FINISTÈRE;Ministère de la défense;;2016;Collectivités territoriales;Gré à gré;2017;48.389729;-4.487808
160300013;Cession réalisée;ESPACE NATUREL; ;30110;STE CECILE D ANDORGE;GARD;Ministère de l'écologie, du développement durable, des transports et du logement;;2016;Collectivités territoriales;Droit de priorité;2017;44.251885;3.975582
160320015;Cession réalisée;ESPACE NATUREL; ;32370;STE CHRISTIE D ARMAGNAC;GERS;Ministère de l'écologie, du développement durable, des transports et du logement;;2016;Personnes physiques non commerçantes;Appel d'offres;2017;43.784479;-0.009069
160320016;Cession réalisée;ESPACE NATUREL; ;32000;AUCH;GERS;Ministère de l'écologie, du développement durable, des transports et du logement;;2016;Personnes physiques non commerçantes;Appel d'offres;2017;43.644497;0.588419
160320017;Cession réalisée;ESPACE NATUREL; ;32190;LANNEPAX;GERS;Biens non affectés;;2016;Personnes physiques non commerçantes;Appel d'offres;2017;43.798832;0.22639
160320018;Cession réalisée;ESPACE NATUREL; ;32810;LEBOULIN;GERS;Ministère de l'écologie, du développement durable, des transports et du logement;;2016;Personnes physiques non commerçantes;Appel d'offres;2017;43.665934;0.663162
160330011;Cession réalisée;ESPACE NATUREL;COMMUNALE N° 4 - 33580;33580;ST VIVIEN DE MONSEGUR;GIRONDE;Biens non affectés;;2016;Personnes physiques non commerçantes;Autres droits;2017;44.615348;0.106755
160330016;Cession réalisée;ESPACE NATUREL;MARC DESBATS - 33600 PESSAC;33600;PESSAC;GIRONDE;Ministère de l'enseignement supérieur et de la recherche;;2016;Entreprises société;Gré à gré;2017;44.805275;-0.633356
160330017;Cession réalisée;ESPACE NATUREL;CADASTRE = C814-827  - 33370 YVRAC;33370;YVRAC;GIRONDE;Ministère de l'écologie, du développement durable, des transports et du logement;;2016;Personnes physiques non commerçantes;Gré à gré;2017;44.879252;-0.461951
160330019;Cession réalisée;ESPACE AMENAGE;DE MEGEVIE - 33170 GRADIGNAN;33170;GRADIGNAN;GIRONDE;Ministère de l'écologie, du développement durable, des transports et du logement;;2016;Collectivités territoriales;Droit de priorité;2017;44.770654;-0.617201
160330020;Cession réalisée;ESPACE AMENAGE;DE LA SOUYS - 33270 FLOIRAC;33270;FLOIRAC;GIRONDE;Ministère de l'écologie, du développement durable, des transports et du logement;;2016;Collectivités territoriales;Droit de priorité;2017;44.835766;-0.526399
160330022;Cession réalisée;ESPACE NATUREL;RD671 - 33540 SAINT BRICE;33540;ST BRICE;GIRONDE;Biens non affectés;;2016;Collectivités territoriales;Gré à gré;2017;44.696621;-0.15005
160330023;Cession réalisée;ESPACE NATUREL;NATIONALE 10 - 33620 MARSAS;33620;MARSAS;GIRONDE;Ministère de l'écologie, du développement durable, des transports et du logement;;2016;Collectivités territoriales;Droit de priorité;2017;45.066424;-0.383245
160340015;Cession réalisée;ESPACE NATUREL;PONT DE LA PEYRADE;34110;FRONTIGNAN;HÉRAULT;Ministère de l'écologie, du développement durable, des transports et du logement;;2016;Collectivités territoriales;Droit de priorité;2017;43.447276;3.754481
160340016;Cession réalisée;COMMERCE; ;34500;VILLENEUVE LES BEZIERS;HÉRAULT;Ministère de l'écologie, du développement durable, des transports et du logement;;2016;Collectivités territoriales;Droit de priorité;2017;43.314597;3.279658
160340021;Cession réalisée;ESPACE NATUREL;COMMISSARIAT POLICE COMTE DE MELGUEIL;34070;MONTPELLIER;HÉRAULT;Ministère de l'intérieur, de l'Outre-mer et des collectivités territoriales;;2016;Collectivités territoriales;Droit de priorité;2017;43.611024;3.875521
160340022;Cession réalisée;ESPACE NATUREL;PARKING DT 6;34110;FRONTIGNAN;HÉRAULT;Ministère de l'écologie, du développement durable, des transports et du logement;;2016;Collectivités territoriales;Droit de priorité;2017;43.447276;3.754481
160340025;Cession réalisée;ESPACE NATUREL; ;34725;ST FELIX DE LODEZ;HÉRAULT;Ministère de l'écologie, du développement durable, des transports et du logement;;2016;Etablissements publics nationaux;Droit de priorité;2017;43.661273;3.458588
160340026;Cession réalisée;RESEAUX ET VOIRIES;AUGUSTE BROUSSONNET;34070;MONTPELLIER;HÉRAULT;Ministère de l'enseignement supérieur et de la recherche;;2016;Collectivités territoriales;Droit de priorité;2017;43.611024;3.875521
160350014;Cession réalisée;LOGEMENT;LOUISE BODIN;35136;ST JACQUES DE LA LANDE;ILLE-ET-VILAINE;Ministère de la justice et des libertés;;2016;Personnes physiques non commerçantes;Adjudication;2017;48.090693;-1.697072
160370011;Cession réalisée;BATIMENT D'ENSEIGNEMENT OU DE SPORT;ANATOLE FRANCE;37200;TOURS;INDRE-ET-LOIRE;Ministère de l'enseignement supérieur et de la recherche;;2016;Entreprises société;Autres droits;2017;47.391759;0.687758
160380020;Cession réalisée;ESPACE NATUREL; ;38700;LE SAPPEY EN CHARTREUSE;ISÈRE;Ministère de l'écologie, du développement durable, des transports et du logement;;2016;Personnes physiques non commerçantes;Appel d'offres;2017;45.262468;5.777564
160380021;Cession réalisée;LOGEMENT;DU BARRAGE;38650;SINARD;ISÈRE;Ministère de l'écologie, du développement durable, des transports et du logement;;2016;Personnes physiques non commerçantes;Adjudication;2017;44.944687;5.656529
160380022;Cession réalisée;LOGEMENT;DU BARRAGE;38650;SINARD;ISÈRE;Ministère de l'écologie, du développement durable, des transports et du logement;;2016;Personnes physiques non commerçantes;Adjudication;2017;44.944687;5.656529
160390010;Cession réalisée;BATIMENT TECHNIQUE;DE PARIS;39150;ST LAURENT EN GRANDVAUX;JURA;Ministère de l'écologie, du développement durable, des transports et du logement;;2016;Personnes physiques non commerçantes;Appel d'offres;2017;46.575315;5.955622
160420014;Cession réalisée;ESPACE NATUREL;DOCTEUR LAENNEC;5150;ST ETIENNE;LOIRE;Ministère de l'écologie, du développement durable, des transports et du logement;;2016;Personnes physiques non commerçantes;Gré à gré;2017;44.389093;5.475006
160420015;Cession réalisée;ESPACE NATUREL;DOCTEUR LAENNEC;5150;ST ETIENNE;LOIRE;Ministère de l'écologie, du développement durable, des transports et du logement;;2016;Personnes physiques non commerçantes;Gré à gré;2017;44.389093;5.475006
160430013;Cession réalisée;ESPACE NATUREL; ;43200;ST MAURICE DE LIGNON;HAUTE-LOIRE;Ministère de l'écologie, du développement durable, des transports et du logement;;2016;Personnes physiques non commerçantes;Appel d'offres;2017;45.223638;4.137839
160430014;Cession réalisée;ESPACE NATUREL; ;43200;ST MAURICE DE LIGNON;HAUTE-LOIRE;Ministère de l'écologie, du développement durable, des transports et du logement;;2016;Personnes physiques non commerçantes;Appel d'offres;2017;45.223638;4.137839
160430017;Cession réalisée;ESPACE NATUREL; ;43200;YSSINGEAUX;HAUTE-LOIRE;Ministère de l'écologie, du développement durable, des transports et du logement;;2016;Personnes physiques non commerçantes;Gré à gré;2017;45.142738;4.123467
160430020;Cession réalisée;ESPACE NATUREL; ;43810;ROCHE EN REGNIER;HAUTE-LOIRE;Biens non affectés;;2016;Personnes physiques non commerçantes;Appel d'offres;2017;45.220973;3.940286
160430021;Cession réalisée;ESPACE NATUREL; ;43810;ROCHE EN REGNIER;HAUTE-LOIRE;Biens non affectés;;2016;Personnes physiques non commerçantes;Appel d'offres;2017;45.220973;3.940286
160430022;Cession réalisée;ESPACE NATUREL; ;43810;ROCHE EN REGNIER;HAUTE-LOIRE;Biens non affectés;;2016;Personnes physiques non commerçantes;Appel d'offres;2017;45.220973;3.940286
160430023;Cession réalisée;LOGEMENT;DE MONTREDON;43700;BRIVES CHARENSAC;HAUTE-LOIRE;Ministère de l'écologie, du développement durable, des transports et du logement;;2016;Personnes physiques non commerçantes;Gré à gré;2017;45.046402;3.925922
160430024;Cession réalisée;ESPACE NATUREL; ;43000;POLIGNAC;HAUTE-LOIRE;Ministère de l'écologie, du développement durable, des transports et du logement;;2016;Collectivités territoriales;Droit de priorité;2017;45.06945;3.858957
160430025;Cession réalisée;ESPACE NATUREL; ;43700;BLAVOZY;HAUTE-LOIRE;Ministère de l'écologie, du développement durable, des transports et du logement;;2016;Collectivités territoriales;Droit de priorité;2017;45.056772;3.976911
160430026;Cession réalisée;ESPACE NATUREL; ;43200;ST MAURICE DE LIGNON;HAUTE-LOIRE;Ministère de l'écologie, du développement durable, des transports et du logement;;2016;Personnes physiques non commerçantes;Appel d'offres;2017;45.223638;4.137839
160440022;Cession réalisée;ESPACE NATUREL;DE LA SYONNIERE;44800;ST HERBLAIN;LOIRE-ATLANTIQUE;Ministère de l'écologie, du développement durable, des transports et du logement;;2016;Entreprises société;Appel d'offres;2017;47.210675;-1.651909
160440025;Cession réalisée;ESPACE NATUREL; ;44390;PUCEUL;LOIRE-ATLANTIQUE;Ministère de l'écologie, du développement durable, des transports et du logement;;2016;Entreprises société;Droit de priorité;2017;47.521346;-1.617724
160440027;Cession réalisée;ESPACE NATUREL; ;44115;BASSE GOULAINE;LOIRE-ATLANTIQUE;Biens non affectés;;2016;Entreprises société;Gré à gré;2017;47.215304;-1.465696
160450010;Cession réalisée;LOGEMENT;D 2060;45110;CHATEAUNEUF SUR LOIRE;LOIRET;Ministère de l'agriculture et de la pêche;;2016;Personnes physiques non commerçantes;Autres droits;2017;47.864913;2.221597
160450011;Cession réalisée;LOGEMENT;FORESTIÈRE DU ROI;45520;CERCOTTES;LOIRET;Ministère de l'agriculture et de la pêche;;2016;Personnes physiques non commerçantes;Autres droits;2017;47.984575;1.88202
160450018;Cession réalisée;SUPPORT DE PARCELLE; ;45210;NARGIS;LOIRET;Ministère de l'écologie, du développement durable, des transports et du logement;;2016;Etablissements publics locaux;Droit de priorité;2017;48.110218;2.755456
160460011;Cession réalisée;BUREAU; ;46300;GOURDON;LOT;Ministère de l'écologie, du développement durable, des transports et du logement;;2016;Personnes physiques non commerçantes;Appel d'offres;2017;44.736817;1.381841
160490012;Cession réalisée;LOGEMENT;ROUTE DE SAUMUR;49400;SAUMUR;MAINE-ET-LOIRE;Ministère de la défense;;2016;Etablissements publics locaux;Gré à gré;2017;47.258651;-0.079223
160540016;Cession réalisée;ESPACE NATUREL; ;54170;THUILLEY AUX GROSEILLES;MEURTHE-ET-MOSELLE;Ministère de l'écologie, du développement durable, des transports et du logement;;2016;Collectivités territoriales;Gré à gré;2017;48.573585;5.972009
160540018;Cession réalisée;BATIMENT TECHNIQUE;COLONEL DRIANT;54110;VARANGEVILLE;MEURTHE-ET-MOSELLE;Ministère de l'écologie, du développement durable, des transports et du logement;;2016;Collectivités territoriales;Droit de priorité;2017;48.633919;6.312261
160540022;Cession réalisée;ESPACE NATUREL; ;54210;MANONCOURT EN VERMOIS;MEURTHE-ET-MOSELLE;Ministère de l'écologie, du développement durable, des transports et du logement;;2016;Collectivités territoriales;Droit de priorité;2017;48.600105;6.265328
160540023;Cession réalisée;ESPACE NATUREL;D 1654;54110;DOMBASLE SUR MEURTHE;MEURTHE-ET-MOSELLE;Ministère de l'écologie, du développement durable, des transports et du logement;;2016;Personnes physiques non commerçantes;Autres droits;2017;48.624769;6.349708
160540032;Cession réalisée;ESPACE NATUREL; ;54630;RICHARDMENIL;MEURTHE-ET-MOSELLE;Ministère de l'écologie, du développement durable, des transports et du logement;;2016;Collectivités territoriales;Gré à gré;2017;48.594617;6.168625
160540035;Cession réalisée;ESPACE NATUREL; ;54250;CHAMPIGNEULLES;MEURTHE-ET-MOSELLE;Ministère de l'écologie, du développement durable, des transports et du logement;;2016;Personnes physiques non commerçantes;Gré à gré;2017;48.733385;6.163439
160540041;Cession réalisée;ESPACE NATUREL; ;54300;THIEBAUMENIL;MEURTHE-ET-MOSELLE;Ministère de l'écologie, du développement durable, des transports et du logement;;2016;Collectivités territoriales;Gré à gré;2017;48.578967;6.622245
160540042;Cession réalisée;ESPACE NATUREL; ;54370;XOUSSE;MEURTHE-ET-MOSELLE;Ministère de l'écologie, du développement durable, des transports et du logement;;2016;Collectivités territoriales;Gré à gré;2017;48.656432;6.709161
160540046;Cession réalisée;BATIMENT TECHNIQUE; ;54300;LUNEVILLE;MEURTHE-ET-MOSELLE;Ministère de la défense;;2016;Collectivités territoriales;Gré à gré;2017;48.588907;6.500776
160540047;Cession réalisée;ESPACE NATUREL; ;54210;MANONCOURT EN VERMOIS;MEURTHE-ET-MOSELLE;Ministère de l'écologie, du développement durable, des transports et du logement;;2016;Personnes physiques non commerçantes;Gré à gré;2017;48.600105;6.265328
160560011;Cession réalisée;LOGEMENT;AÉRODROME MONTERBLANC;56250;MONTERBLANC;MORBIHAN;Ministère de l'écologie, du développement durable, des transports et du logement;;2016;Personnes physiques non commerçantes;Adjudication;2017;47.742236;-2.682605
160560017;Cession réalisée;ESPACE NATUREL; ;56190;LA TRINITE SURZUR;MORBIHAN;Ministère de l'écologie, du développement durable, des transports et du logement;;2016;Collectivités territoriales;Droit de priorité;2017;47.603854;-2.595802
160590010;Cession réalisée;ESPACE NATUREL; ;59236;FRELINGHIEN;NORD;Ministère de l'intérieur, de l'Outre-mer et des collectivités territoriales;;2016;Entreprises société;Autres droits;2017;50.711426;2.933577
160590014;Cession réalisée;ESPACE NATUREL;DE L'ECLUSE;59230;ST AMAND LES EAUX;NORD;Ministère de l'écologie, du développement durable, des transports et du logement;;2016;Collectivités territoriales;Droit de priorité;2017;50.447743;3.425976
160590017;Cession réalisée;ESPACE NATUREL;MAUGRE EQUIPEMENT;59121;PROUVY;NORD;Ministère de l'écologie, du développement durable, des transports et du logement;;2016;Entreprises société;Appel d'offres;2017;50.320176;3.450142
160600010;Cession réalisée;LOGEMENT;BERANGER;60190;ARSY;OISE;Ministère de l'écologie, du développement durable, des transports et du logement;;2016;Personnes physiques non commerçantes;Adjudication;2017;49.400662;2.680472
160600013;Cession réalisée;ESPACE NATUREL;LES BUTTES DE LA GARENNE MONCHY;60290;MONCHY ST ELOI;OISE;Ministère de l'écologie, du développement durable, des transports et du logement;;2016;Collectivités territoriales;Droit de priorité;2017;49.289343;2.466767
160600015;Cession réalisée;LOGEMENT;CARNOT LIEU DIT LA BASSE QUEUE;60610;LACROIX ST OUEN;OISE;Ministère de l'agriculture et de la pêche;;2016;Personnes physiques non commerçantes;Adjudication;2017;49.355953;2.786708
160600024;Cession réalisée;LOGEMENT;DU 14 JUILLET;60280;MARGNY LES COMPIEGNE;OISE;Ministère de l'écologie, du développement durable, des transports et du logement;;2016;Entreprises société;Adjudication;2017;49.426119;2.820866
160600025;Cession réalisée;ESPACE NATUREL;MONT FLORENTIN;60390;BERNEUIL EN BRAY;OISE;Ministère de la défense;;2016;Collectivités territoriales;Droit de priorité;2017;49.348036;2.065766
160600026;Cession réalisée;ESPACE NATUREL;CHEMIN RURAL DU GENETRAY;60128;PLAILLY;OISE;Biens non affectés;;2016;Collectivités territoriales;Droit de priorité;2017;49.102797;2.582344
160620011;Cession réalisée;LOGEMENT;EMILE ZOLA;62800;LIEVIN;PAS-DE-CALAIS;Ministère de l'écologie, du développement durable, des transports et du logement;;2016;Personnes physiques non commerçantes;Appel d'offres;2017;50.421345;2.776586
160620013;Cession réalisée;ESPACE NATUREL;DES FUSILLES;62440;HARNES;PAS-DE-CALAIS;Biens non affectés;;2016;Etablissements publics locaux;Droit de priorité;2017;50.444849;2.904407
160620018;Cession réalisée;ESPACE NATUREL; ;62185;FRETHUN;PAS-DE-CALAIS;Ministère de l'écologie, du développement durable, des transports et du logement;;2016;Entreprises société;Autres droits;2017;50.916741;1.823558
160620019;Cession réalisée;ESPACE NATUREL; ;62130;ROELLECOURT;PAS-DE-CALAIS;Ministère de l'écologie, du développement durable, des transports et du logement;;2016;Entreprises société;Autres droits;2017;50.367049;2.385214
160620020;Cession réalisée;ESPACE NATUREL; ;62120;LAMBRES;PAS-DE-CALAIS;Biens non affectés;;2016;Entreprises société;Appel d'offres;2017;50.616647;2.396266
160630011;Cession réalisée;ESPACE NATUREL;DU COMMERCE;62790;CHATELGUYON;PUY-DE-DÔME;Ministère de l'intérieur, de l'Outre-mer et des collectivités territoriales;;2016;Personnes physiques non commerçantes;Gré à gré;2017;50.427904;3.066214
160630013;Cession réalisée;ESPACE NATUREL;DE MONTROGNON;63122;CEYRAT;PUY-DE-DÔME;Ministère de l'écologie, du développement durable, des transports et du logement;;2016;Collectivités territoriales;Droit de priorité;2017;45.731871;3.063006
160630015;Cession réalisée;LOGEMENT;MALHOUET;63200;RIOM;PUY-DE-DÔME;Ministère de la justice et des libertés;;2016;Personnes physiques non commerçantes;Appel d'offres;2017;45.893021;3.112195
160630017;Cession réalisée;ESPACE AMENAGE; ;63118;CEBAZAT;PUY-DE-DÔME;Biens non affectés;;2016;Etablissements publics locaux;Droit de priorité;2017;45.830899;3.099188
160630019;Cession réalisée;BATIMENT SANITAIRE OU SOCIAL;ALTAROCHE;63500;ISSOIRE;PUY-DE-DÔME;Ministère de la justice et des libertés;;2016;Personnes physiques non commerçantes;Appel d'offres;2017;45.543414;3.248607
160640013;Cession réalisée;ESPACE NATUREL; ;64480;USTARITZ;PYRÉNÉES-ATLANTIQUES;Ministère de l'écologie, du développement durable, des transports et du logement;;2016;Collectivités territoriales;Droit de priorité;2017;43.398668;-1.457503
160640017;Cession réalisée;ESPACE AMENAGE;DE MOURENX;64000;PAU;PYRÉNÉES-ATLANTIQUES;Ministère de l'écologie, du développement durable, des transports et du logement;;2016;Entreprises société;Appel d'offres;2017;43.300199;-0.37085
160640018;Cession réalisée;LOGEMENT;MARCA;64000;PAU;PYRÉNÉES-ATLANTIQUES;Ministère de la culture et de la communication;;2016;Personne physique immatriculée (métropole);Appel d'offres;2017;43.300199;-0.37085
160660012;Cession réalisée;BATIMENT AGRICOLE OU D'ELEVAGE; ;66120;FONT ROMEU ODEILLO VIA;PYRÉNÉES-ORIENTALES;Ministère de l'écologie, du développement durable, des transports et du logement;;2016;Entreprises société;Appel d'offres;2017;42.497641;2.033034
160660014;Cession réalisée;LOGEMENT;GIRAUDOUX;66100;PERPIGNAN;PYRÉNÉES-ORIENTALES;Ministère de l'éducation nationale;;2016;Personnes physiques non commerçantes;Appel d'offres;2017;42.697055;2.893955
160660016;Cession réalisée;LOGEMENT;DES ACACIAS;66340;OSSEJA;PYRÉNÉES-ORIENTALES;Ministère du budget, des comptes publics et de la réforme de l'Etat;;2016;Personnes physiques non commerçantes;Appel d'offres;2017;42.415339;1.979803
160660017;Cession réalisée;BATIMENT TECHNIQUE;DU MOULIN;66680;CANOHES;PYRÉNÉES-ORIENTALES;Ministère de l'intérieur, de l'Outre-mer et des collectivités territoriales;;2016;Associations;Appel d'offres;2017;42.651125;2.833141
160660020;Cession réalisée;ESPACE NATUREL; ;31240;PORT BARCARES;PYRÉNÉES-ORIENTALES;Ministère de l'écologie, du développement durable, des transports et du logement;;2016;Collectivités territoriales;Droit de priorité;2017;43.647898;1.474709
160660024;Cession réalisée;ESPACE NATUREL;MAS LE MAXINA;66300;VILLEMOLAQUE;PYRÉNÉES-ORIENTALES;Ministère de l'écologie, du développement durable, des transports et du logement;;2016;Entreprises société;Appel d'offres;2017;42.587303;2.839406
160670022;Cession réalisée;LOGEMENT;DU SCHWEINSTISCH / MAISON FORESTIÈRE DE SCHWEINSTISCH;67290;WINGEN SUR MODER;BAS-RHIN;Ministère de l'agriculture et de la pêche;;2016;Personnes physiques non commerçantes;Adjudication;2017;48.920246;7.375629
160670027;Cession réalisée;ESPACE NATUREL;JACOUTOT SECTION BR N°165;67000;STRASBOURG;BAS-RHIN;Ministère de l'écologie, du développement durable, des transports et du logement;;2016;Collectivités territoriales;Droit de priorité;2017;48.58353;7.746735
160670029;Cession réalisée;BUREAU;JACOUTOT SECTION DA N°155;67000;STRASBOURG;BAS-RHIN;Ministère de l'écologie, du développement durable, des transports et du logement;;2016;Entreprises société;Adjudication;2017;48.58353;7.746735
160670030;Cession réalisée;SUPPORT DE PARCELLE;ARISTIDE BRIAND SECTION 16 N°471;67600;SELESTAT;BAS-RHIN;Ministère de l'enseignement supérieur et de la recherche;;2016;Collectivités territoriales;Droit de priorité;2017;48.258797;7.452921
160670031;Cession réalisée;SUPPORT DE PARCELLE;DE BISCHWILLER;67460;SOUFFELWEYERSHEIM;BAS-RHIN;Ministère de l'écologie, du développement durable, des transports et du logement;;2016;Entreprises société;Echange (Hors Etat);2017;48.634244;7.740464
160670032;Cession réalisée;SUPPORT DE PARCELLE;TERRAIN VNF SECTION 5 PARCELLE 17;67550;VENDENHEIM;BAS-RHIN;Ministère de l'écologie, du développement durable, des transports et du logement;;2016;Associations;Gré à gré;2017;48.666907;7.712139
160680013;Cession réalisée;ESPACE AMENAGE; ;68600;VOLGELSHEIM;HAUT-RHIN;Ministère de l'écologie, du développement durable, des transports et du logement;;2016;Entreprises société;Autres droits;2017;48.015475;7.546637
160680014;Cession réalisée;ESPACE NATUREL; ;68720;ZILLISHEIM;HAUT-RHIN;Ministère de l'écologie, du développement durable, des transports et du logement;;2016;Collectivités territoriales;Droit de priorité;2017;47.695055;7.294953
160700010;Cession réalisée;LOGEMENT;DE REMAUCOURT;70170;PORT SUR SAONE;HAUTE-SAÔNE;Ministère de l'écologie, du développement durable, des transports et du logement;;2016;Personnes physiques non commerçantes;Appel d'offres;2017;47.68748;6.043969
160700011;Cession réalisée;LOGEMENT;DE REMAUCOURT;70170;PORT SUR SAONE;HAUTE-SAÔNE;Ministère de l'écologie, du développement durable, des transports et du logement;;2016;Etablissements publics locaux;Gré à gré;2017;47.68748;6.043969
160700012;Cession réalisée;LOGEMENT;DE REMAUCOURT;70170;PORT SUR SAONE;HAUTE-SAÔNE;Ministère de l'écologie, du développement durable, des transports et du logement;;2016;Personnes physiques non commerçantes;Appel d'offres;2017;47.68748;6.043969
160700013;Cession réalisée;LOGEMENT;DIT DU GAGNE PAIN;70170;PORT SUR SAONE;HAUTE-SAÔNE;Ministère de l'écologie, du développement durable, des transports et du logement;;2016;Etablissements publics locaux;Gré à gré;2017;47.68748;6.043969
160700015;Cession réalisée;SUPPORT DE PARCELLE;DES CAPUCINS;70700;GY;HAUTE-SAÔNE;Biens non affectés;;2016;Personnes physiques non commerçantes;Gré à gré;2017;47.405972;5.811691
160720011;Cession réalisée;LOGEMENT;JOEL LE THEULE;72300;SABLE SUR SARTHE;SARTHE;Ministère du budget, des comptes publics et de la réforme de l'Etat;;2016;Personnes physiques non commerçantes;Gré à gré;2017;47.839887;-0.334998
160720012;Cession réalisée;LOGEMENT;D 338 / MAISON FORESTIERE DE LA TASSE;72500;BEAUMONT PIED DE BOEUF;SARTHE;Ministère de l'agriculture et de la pêche;;2016;Personnes physiques non commerçantes;Adjudication;2017;47.759449;0.400692
160740017;Cession réalisée;ESPACE NATUREL; ;74300;MAGLAND;HAUTE-SAVOIE;Ministère de l'agriculture et de la pêche;;2016;Personnes physiques non commerçantes;Appel d'offres;2017;46.021705;6.619303
160740019;Cession réalisée;ESPACE NATUREL;DE CABOUET;74380;CRANVES SALES;HAUTE-SAVOIE;Ministère de l'écologie, du développement durable, des transports et du logement;;2016;Collectivités territoriales;Droit de priorité;2017;46.18586;6.290137
160740021;Cession réalisée;LOGEMENT;PAUL BECHET;74300;CLUSES;HAUTE-SAVOIE;Ministère de l'économie, de l'industrie et de l'emploi;;2016;Collectivités territoriales;Droit de priorité;2017;46.059981;6.577799
160750011;Cession réalisée;ESPACE NATUREL;JEAN CALVIN;75005;PARIS;PARIS;Ministère de l'enseignement supérieur et de la recherche;;2016;Collectivités territoriales;Droit de priorité;2017;48.845295;2.351029
160750015;Cession réalisée;BATIMENT TECHNIQUE;DE LA ROCHEFOUCAULD;75019;PARIS;PARIS;Ministère de la santé, de la jeunesse, des sports et de la vie associative : santé;;2016;Personnes physiques non commerçantes;Adjudication;2017;48.877788;2.384718
160750016;Cession réalisée;BATIMENT TECHNIQUE;DE LA ROCHEFOUCAULD;75019;PARIS;PARIS;Ministère de la santé, de la jeunesse, des sports et de la vie associative : santé;;2016;Entreprises société;Adjudication;2017;48.877788;2.384718
160760014;Cession réalisée;BUREAU;DE L'ÉTANG;76190;YVETOT;SEINE-MARITIME;Ministère de l'écologie, du développement durable, des transports et du logement;;2016;Collectivités territoriales;Droit de priorité;2017;49.616662;0.752211
160760017;Cession réalisée;LOGEMENT;SENARD;76000;ROUEN;SEINE-MARITIME;Ministère de la défense;;2016;Entreprises société;Appel d'offres;2017;49.442832;1.101763
160770013;Cession réalisée;OUVRAGE D'ART DES RESEAUX ET VOIRIES;JEAN MERMOZ;77830;ECHOUBOULAINS;SEINE-ET-MARNE;Ministère de la défense;;2016;Personnes physiques non commerçantes;Adjudication;2017;48.463155;2.94454
160770015;Cession réalisée;BUREAU;OCTAVE MIRBEAU;77290;MITRY MORY;SEINE-ET-MARNE;Ministère de l'intérieur, de l'Outre-mer et des collectivités territoriales;;2016;Personne physique immatriculée (métropole);Adjudication;2017;48.98332;2.616094
160770020;Cession réalisée;LOGEMENT;DE LA FONTAINE LA REINE;77000;MELUN;SEINE-ET-MARNE;Ministère de la justice et des libertés;;2016;Entreprises société;Adjudication;2017;48.539143;2.658631
160770024;Cession réalisée;BATIMENT CULTUREL;DU CHATEAU;73110;LA ROCHETTE;SEINE-ET-MARNE;Ministère de l'éducation nationale;;2016;Entreprises société;Adjudication;2017;45.457986;6.120245
160770025;Cession réalisée;RESEAUX ET VOIRIES;DE PARIS;77130;MONTEREAU FAULT YONNE;SEINE-ET-MARNE;Ministère de l'écologie, du développement durable, des transports et du logement;;2016;Collectivités territoriales;Autres droits;2017;48.382188;2.947327
160770031;Cession réalisée;BATIMENT AGRICOLE OU D'ELEVAGE;PORTE NADON;77300;FONTAINEBLEAU;SEINE-ET-MARNE;Ministère de l'agriculture et de la pêche;;2016;Personne physique immatriculée (métropole);Adjudication;2017;48.408814;2.701368
160770035;Cession réalisée;BUREAU;GÉNÉRAL LECLERC;77170;BRIE COMTE ROBERT;SEINE-ET-MARNE;Ministère du budget, des comptes publics et de la réforme de l'Etat;;2016;Entreprises société;Adjudication;2017;48.691912;2.610083
160780019;Cession réalisée;ESPACE NATUREL;TERRAIN EN BORD DE BIEVRE BN 26;78280;GUYANCOURT;YVELINES;Ministère de la culture et de la communication;;2016;Etablissements publics locaux;Autres droits;2017;48.769893;2.072035
160790016;Cession réalisée;ESPACE NATUREL; ;79110;ARDILLEUX;DEUX-SÈVRES;Biens non affectés;;2016;Personnes physiques non commerçantes;Appel d'offres;2017;46.098066;-0.045217
160790018;Cession réalisée;ESPACE NATUREL; ;79120;CHEY;DEUX-SÈVRES;Biens non affectés;;2016;Personnes physiques non commerçantes;Appel d'offres;2017;46.303362;-0.051445
160790020;Cession réalisée;ESPACE NATUREL; ;79600;ST GENEROUX;DEUX-SÈVRES;Biens non affectés;;2016;Personnes physiques non commerçantes;Appel d'offres;2017;46.884047;-0.138072
160790036;Cession réalisée;BATIMENT TECHNIQUE;D 25 / GARAGE DE LA MAISON FORESTIÈRE DE L'ABBAYE;79130;SECONDIGNY;DEUX-SÈVRES;Ministère de l'agriculture et de la pêche;;2016;Personnes physiques non commerçantes;Appel d'offres;2017;46.609234;-0.42037
160790039;Cession réalisée;ESPACE NATUREL; ;79270;EPANNES;DEUX-SÈVRES;Ministère de l'écologie, du développement durable, des transports et du logement;;2016;Personnes physiques non commerçantes;Autres droits;2017;46.230121;-0.585019
160790040;Cession réalisée;RESEAUX ET VOIRIES;DE LA TOUR CARRÉE;79400;ST MAIXENT L ECOLE;DEUX-SÈVRES;Ministère de la défense;;2016;Collectivités territoriales;Droit de priorité;2017;46.412593;-0.208687
160790041;Cession réalisée;ESPACE NATUREL; ;79320;VILLEFOLLET;DEUX-SÈVRES;Ministère de l'écologie, du développement durable, des transports et du logement;;2016;Personnes physiques non commerçantes;Appel d'offres;2017;46.736644;-0.552283
160790042;Cession réalisée;ESPACE NATUREL; ;79320;VILLEFOLLET;DEUX-SÈVRES;Ministère de l'écologie, du développement durable, des transports et du logement;;2016;Personnes physiques non commerçantes;Appel d'offres;2017;46.736644;-0.552283
160790043;Cession réalisée;LOGEMENT;JULES FERRY;79100;THOUARS;DEUX-SÈVRES;Ministère du budget, des comptes publics et de la réforme de l'Etat;;2016;Personnes physiques non commerçantes;Appel d'offres;2017;46.974717;-0.215745
160800010;Cession réalisée;BUREAU;ALPHONSE FIQUET;80000;AMIENS;SOMME;Ministère de l'intérieur, de l'Outre-mer et des collectivités territoriales;;2016;Entreprises société;Droit de priorité;2017;49.891485;2.296389
160800011;Cession réalisée;BUREAU;DES JACOBINS;80000;AMIENS;SOMME;Ministère du budget, des comptes publics et de la réforme de l'Etat;;2016;Entreprises société;Appel d'offres;2017;49.891485;2.296389
160800012;Cession réalisée;LOGEMENT;DES ¨PÊCHEURS;80410;CAYEUX SUR MER;SOMME;Ministère de l'écologie, du développement durable, des transports et du logement;;2016;Personnes physiques non commerçantes;Appel d'offres;2017;50.180678;1.493781
160840010;Cession réalisée;ESPACE NATUREL;VELORGUES L'ISLE SUR LA SORGUE;84800;L ISLE SUR LA SORGUE;VAUCLUSE;Biens non affectés;;2016;Personnes physiques non commerçantes;Gré à gré;2017;43.919255;5.050783
160870010;Cession réalisée;ESPACE NATUREL; ;87420;ST VICTURNIEN;HAUTE-VIENNE;Ministère de l'écologie, du développement durable, des transports et du logement;;2016;Personnes physiques non commerçantes;Gré à gré;2017;45.877418;1.013078
160870012;Cession réalisée;BATIMENT TECHNIQUE;FONT PINOT;87100;LIMOGES;HAUTE-VIENNE;Ministère du Travail, des relations sociales, de la famille et de la solidarité;;2016;Collectivités territoriales;Gré à gré;2017;45.833763;1.260768
160880035;Cession réalisée;BUREAU;DU FAING;12200;STE MARGUERITE;VOSGES;Ministère de l'écologie, du développement durable, des transports et du logement;;2016;Entreprises société;Appel d'offres;2017;44.360431;2.036341
160890012;Cession réalisée;ESPACE NATUREL;DU FAUBOURG DU PONT;89600;ST FLORENTIN;YONNE;Ministère de l'écologie, du développement durable, des transports et du logement;;2016;Collectivités territoriales;Droit de priorité;2017;48.001158;3.724085
160910020;Cession réalisée;BATIMENT TECHNIQUE;TERRASSES DE L'AGORA;91000;EVRY;ESSONNE;Ministère de l'économie, de l'industrie et de l'emploi;;2016;Entreprises société;Gré à gré;2017;48.623719;2.428773
160910021;Cession réalisée;ESPACE NATUREL;D'ORLEANS;91410;DOURDAN;ESSONNE;Biens non affectés;;2016;Collectivités territoriales;Droit de priorité;2017;48.528314;2.009942
160910022;Cession réalisée;SUPPORT DE PARCELLE; ;91550;PARAY VIEILLE POSTE;ESSONNE;Ministère de l'écologie, du développement durable, des transports et du logement;;2016;Entreprises société;Gré à gré;2017;48.707936;2.362618
160920026;Cession réalisée;BUREAU;JACQUES PREVERT;92700;COLOMBES;HAUTS-DE-SEINE;Ministère du budget, des comptes publics et de la réforme de l'Etat;;2016;Collectivités territoriales;Droit de priorité;2017;48.92315;2.252172
160930016;Cession réalisée;ESPACE NATUREL;DE LA DIVISION LECLERC;93430;VILLETANEUSE;SEINE-SAINT-DENIS;Ministère de l'enseignement supérieur et de la recherche;;2016;Etablissements publics locaux;Gré à gré;2017;48.96415;2.343089
160950013;Cession réalisée;ESPACE NATUREL;DE LA MARNE;95220;HERBLAY;VAL-D'OISE;Ministère de l'écologie, du développement durable, des transports et du logement;;2016;Collectivités territoriales;Droit de priorité;2017;48.990021;2.165124
160990233;Cession réalisée;LOGEMENT;SOMKID GARDENS CONDOMINIUM 18 SOI SOMKID;; ; ;Ministère de l'économie, de l'industrie et de l'emploi;;2016;Personnes physiques non commerçantes; ;2017;;
169710012;Cession réalisée;BUREAU;FERDINAND DE LESSEPS;97110;POINTE A PITRE;GUADELOUPE;Ministère de l'intérieur, de l'Outre-mer et des collectivités territoriales;;2016;Entreprises société;Appel d'offres;2017;16.23586;-61.532033
169710014;Cession réalisée;ESPACE AMENAGE;GUSTAVIA;4210;ST BARTHELEMY;GUADELOUPE;Ministère de l'intérieur, de l'Outre-mer et des collectivités territoriales;;2016;Collectivités territoriales;Droit de priorité;2017;43.834099;5.976635
169710021;Cession réalisée;LOGEMENT;BLANCHE;39200;ST CLAUDE;GUADELOUPE;Ministère de la justice et des libertés;;2016;Personnes physiques non commerçantes;Appel d'offres;2017;46.386671;5.862077
169740013;Cession réalisée;ESPACE NATUREL;NATIONALE;29140;ST PHILIPPE;LA REUNION;Ministère de l'écologie, du développement durable, des transports et du logement;;2016;Entreprises société;Adjudication;2017;47.958112;-3.900402
169740014;Cession réalisée;ESPACE NATUREL;NATIONALE;29140;ST PHILIPPE;LA REUNION;Ministère de l'écologie, du développement durable, des transports et du logement;;2016;Personnes physiques non commerçantes;Adjudication;2017;47.958112;-3.900402
169740016;Cession réalisée;ESPACE NATUREL;DU TROU D'EAU;97423;ST PAUL;LA REUNION;Ministère de l'écologie, du développement durable, des transports et du logement;;2016;Entreprises société;Appel d'offres;2017;-21.036635;55.310167
169880012;Cession réalisée;LOGEMENT;RP3 SECTION POINDIMIÉ CULTURE ET PATURAGE;;POINDIMIE;NOUVELLE CALEDONIE;Ministère de l'écologie, du développement durable, des transports et du logement;;2016;Etablissements publics locaux;Gré à gré;2017;;
170010010;Cession réalisée;ESPACE NATUREL; ;1140;GARNERANS;AIN;Ministère de l'écologie, du développement durable, des transports et du logement;;2017;Collectivités territoriales;Droit de priorité;2017;46.205062;4.840525
170010011;Cession réalisée;ESPACE NATUREL; ;1250;CORVEISSIAT;AIN;Ministère de l'écologie, du développement durable, des transports et du logement;;2017;Personnes physiques non commerçantes;Appel d'offres;2017;46.24245;5.480552
170030010;Cession réalisée;ESPACE NATUREL; ;3230;GANNAY SUR LOIRE;ALLIER;Ministère de l'écologie, du développement durable, des transports et du logement;;2017;Personnes physiques non commerçantes;Appel d'offres;2017;46.73069;3.610231
170030011;Cession réalisée;ESPACE NATUREL; ;3380;QUINSSAINES;ALLIER;Ministère du budget, des comptes publics et de la réforme de l'Etat;;2017;Personnes physiques non commerçantes;Appel d'offres;2017;46.326958;2.509961
170030022;Cession réalisée;ESPACE NATUREL; ;3120;DROITURIER;ALLIER;Ministère de l'écologie, du développement durable, des transports et du logement;;2017;Personnes physiques non commerçantes;Gré à gré;2017;46.230299;3.717548
170030023;Cession réalisée;ESPACE NATUREL; ;42620;ST PIERRE LAVAL;ALLIER;Ministère de l'écologie, du développement durable, des transports et du logement;;2017;Collectivités territoriales;Gré à gré;2017;46.201075;3.779417
170030024;Cession réalisée;ESPACE NATUREL; ;42620;ST PIERRE LAVAL;ALLIER;Ministère de l'écologie, du développement durable, des transports et du logement;;2017;Personnes physiques non commerçantes;Gré à gré;2017;46.201075;3.779417
170030026;Cession réalisée;ESPACE NATUREL; ;3120;DROITURIER;ALLIER;Ministère de l'écologie, du développement durable, des transports et du logement;;2017;Personnes physiques non commerçantes;Gré à gré;2017;46.230299;3.717548
170040011;Cession réalisée;BATIMENT TECHNIQUE;LE VILLAGE;4530;ST PAUL SUR UBAYE;ALPES DE HAUTE-PROVENCE;Ministère de l'écologie, du développement durable, des transports et du logement;;2017;Collectivités territoriales;Droit de priorité;2017;44.514757;6.750689
170040012;Cession réalisée;ESPACE NATUREL; ;4100;MANOSQUE;ALPES DE HAUTE-PROVENCE;Ministère de l'économie, de l'industrie et de l'emploi;;2017;Collectivités territoriales;Autres droits;2017;43.832817;5.782723
170040013;Cession réalisée;ESPACE AMENAGE;DE LA GARE;4160;CHATEAU ARNOUX ST AUBAN;ALPES DE HAUTE-PROVENCE;Ministère de l'écologie, du développement durable, des transports et du logement;;2017;Entreprises société;Gré à gré;2017;44.092521;6.00787
170050010;Cession réalisée;ESPACE NATUREL; ;69830;ST CHAFFREY;HAUTES ALPES;Ministère de l'écologie, du développement durable, des transports et du logement;;2017;Collectivités territoriales;Droit de priorité;2017;46.075971;4.721319
170050011;Cession réalisée;ESPACE NATUREL; ;5200;BARATIER;HAUTES ALPES;Ministère de l'écologie, du développement durable, des transports et du logement;;2017;Collectivités territoriales;Droit de priorité;2017;44.537568;6.495169
170050012;Cession réalisée;BATIMENT TECHNIQUE;6 RUE JOSEPH MATHIEU 05 600 GUILLESTRE;5600;GUILLESTRE;HAUTES ALPES;Ministère de l'écologie, du développement durable, des transports et du logement;;2017;Etablissements publics locaux;Droit de priorité;2017;44.659651;6.649216
170070012;Cession réalisée;SUPPORT DE PARCELLE; ;7300;TOURNON SUR RHONE;ARDÈCHE;Ministère de l'écologie, du développement durable, des transports et du logement;;2017;Collectivités territoriales;Autres droits;2017;45.066699;4.832309
170100011;Cession réalisée;ESPACE NATUREL; ;10150;PONT STE MARIE;AUBE;Ministère de l'écologie, du développement durable, des transports et du logement;;2017;Collectivités territoriales;Droit de priorité;2017;48.320402;4.100825
170130010;Cession réalisée;LOGEMENT;FONTAINE DES VENTS;13004;MARSEILLE 02;BOUCHES-DU-RHÔNE;Biens non affectés;;2017;Personnes physiques non commerçantes;Appel d'offres;2017;43.316302;5.393981
170130014;Cession réalisée;COMMERCE;ROUSTAN;13118;ISTRES;BOUCHES-DU-RHÔNE;Biens non affectés;;2017;Collectivités territoriales;Droit de priorité;2017;43.513561;4.988075
170130018;Cession réalisée;ESPACE NATUREL;DIOGÈNE;11300;MARSEILLE 11;BOUCHES-DU-RHÔNE;Ministère de la justice et des libertés;;2017;Entreprises société;Gré à gré;2017;43.072286;2.228833
170140012;Cession réalisée;ESPACE NATUREL;PARCELLE ZB 51;14350;ST JEAN DES ESSARTIERS;CALVADOS;Ministère de l'écologie, du développement durable, des transports et du logement;;2017;Personnes physiques non commerçantes;Gré à gré;2017;49.045252;-0.837397
170140013;Cession réalisée;SUPPORT DE PARCELLE;L'EGLISE;14370;VIMONT;CALVADOS;Ministère de l'écologie, du développement durable, des transports et du logement;;2017;Collectivités territoriales;Droit de priorité;2017;49.121224;-0.199459
170140014;Cession réalisée;ESPACE NATUREL; ;14220;CULEY LE PATRY;CALVADOS;Ministère de l'agriculture et de la pêche;;2017;Entreprises société;Gré à gré;2017;48.950801;-0.531983
170150010;Cession réalisée;BATIMENT D'ENSEIGNEMENT OU DE SPORT; ;15270;LAVEISSIERE;CANTAL;Biens non affectés;;2017;Collectivités territoriales;Droit de priorité;2017;45.408681;2.640038
170160011;Cession réalisée;ESPACE NATUREL; ;16710;ST YRIEIX SUR CHARENTE;CHARENTE;Ministère de l'écologie, du développement durable, des transports et du logement;;2017;Etablissements publics locaux;Droit de priorité;2017;45.674547;0.1272
170210010;Cession réalisée;LOGEMENT;21320 THOISY-LE-DESERT;21320;THOISY LE DESERT;CÔTE-D'OR;Biens non affectés;;2017;Personne physique immatriculée (métropole);Autres droits;2017;47.246287;4.524419
170210011;Cession réalisée;ESPACE NATUREL;DE CRACOVIE;21000;DIJON;CÔTE-D'OR;Ministère de l'écologie, du développement durable, des transports et du logement;;2017;Entreprises société;Gré à gré;2017;47.322982;5.041742
170210012;Cession réalisée;ESPACE NATUREL;DES ALISIERS;21121;DAIX;CÔTE-D'OR;Ministère de l'écologie, du développement durable, des transports et du logement;;2017;Personne physique immatriculée (métropole);Gré à gré;2017;47.351663;4.997781
170210013;Cession réalisée;ESPACE AMENAGE;ALBERT 1ER;21000;DIJON;CÔTE-D'OR;Ministère de la justice et des libertés;;2017;Personnes physiques non commerçantes;Autres droits;2017;47.322982;5.041742
170210016;Cession réalisée;RESEAUX ET VOIRIES;DE DIJON;21121;DAIX;CÔTE-D'OR;Ministère de l'écologie, du développement durable, des transports et du logement;;2017;Collectivités territoriales;Droit de priorité;2017;47.351663;4.997781
170210017;Cession réalisée;RESEAUX ET VOIRIES;DE DIJON;21121;DAIX;CÔTE-D'OR;Ministère de l'écologie, du développement durable, des transports et du logement;;2017;Collectivités territoriales;Droit de priorité;2017;47.351663;4.997781
170210018;Cession réalisée;ESPACE NATUREL;DE DIJON;21121;DAIX;CÔTE-D'OR;Ministère de l'écologie, du développement durable, des transports et du logement;;2017;Collectivités territoriales;Droit de priorité;2017;47.351663;4.997781
170210019;Cession réalisée;RESEAUX ET VOIRIES;DE DIJON;21121;DAIX;CÔTE-D'OR;Ministère de l'écologie, du développement durable, des transports et du logement;;2017;Collectivités territoriales;Droit de priorité;2017;47.351663;4.997781
170210020;Cession réalisée;ESPACE NATUREL;DE DIJON;21121;DAIX;CÔTE-D'OR;Ministère de l'écologie, du développement durable, des transports et du logement;;2017;Collectivités territoriales;Droit de priorité;2017;47.351663;4.997781
170210021;Cession réalisée;ESPACE NATUREL;DE DIJON;21121;DAIX;CÔTE-D'OR;Ministère de l'écologie, du développement durable, des transports et du logement;;2017;Collectivités territoriales;Droit de priorité;2017;47.351663;4.997781
170210022;Cession réalisée;RESEAUX ET VOIRIES;DE DIJON;21121;DAIX;CÔTE-D'OR;Ministère de l'écologie, du développement durable, des transports et du logement;;2017;Collectivités territoriales;Droit de priorité;2017;47.351663;4.997781
170210025;Cession réalisée;ESPACE NATUREL; ;21910;NOIRON SOUS GEVREY;CÔTE-D'OR;Ministère de la défense;;2017;Entreprises société;Gré à gré;2017;47.193538;5.079109
170220012;Cession réalisée;ESPACE NATUREL; ;22230;TREMOREL;CÔTES D'ARMOR;Ministère de l'écologie, du développement durable, des transports et du logement;;2017;Collectivités territoriales;Gré à gré;2017;48.199037;-2.289322
170250010;Cession réalisée;ESPACE NATUREL; ;25720;BEURE;DOUBS;Ministère de l'écologie, du développement durable, des transports et du logement;;2017;Personnes physiques non commerçantes;Appel d'offres;2017;47.207481;6.003579
170250011;Cession réalisée;LOGEMENT;DU HALAGE;25110;FOURBANNE;DOUBS;Ministère de l'écologie, du développement durable, des transports et du logement;;2017;Personnes physiques non commerçantes;Adjudication;2017;47.33087;6.303353
170250013;Cession réalisée;LOGEMENT;CHEMIN DU HALAGE;25110;FOURBANNE;DOUBS;Ministère de l'écologie, du développement durable, des transports et du logement;;2017;Personnes physiques non commerçantes;Adjudication;2017;47.33087;6.303353
170250014;Cession réalisée;ESPACE AMENAGE;DU HALAGE;25110;FOURBANNE;DOUBS;Ministère de l'écologie, du développement durable, des transports et du logement;;2017;Personnes physiques non commerçantes;Adjudication;2017;47.33087;6.303353
170260010;Cession réalisée;ESPACE NATUREL; ;26130;ST PAUL TROIS CHATEAUX;DRÔME;Ministère de l'agriculture et de la pêche;;2017;Collectivités territoriales;Droit de priorité;2017;44.348236;4.767668
170260012;Cession réalisée;ESPACE NATUREL; ;26400;DIVAJEU;DRÔME;Ministère de l'écologie, du développement durable, des transports et du logement;;2017;Entreprises société;Gré à gré;2017;44.704375;5.004881
170260013;Cession réalisée;ESPACE NATUREL; ;26400;DIVAJEU;DRÔME;Ministère de l'écologie, du développement durable, des transports et du logement;;2017;Etablissements publics nationaux;Gré à gré;2017;44.704375;5.004881
170270010;Cession réalisée;BUREAU;DU GENERAL DE GAULLE;27250;RUGLES;EURE;Ministère de l'écologie, du développement durable, des transports et du logement;;2017;Collectivités territoriales;Gré à gré;2017;48.8217;0.70884
170270011;Cession réalisée;ESPACE NATUREL; ;27100;VAL DE REUIL;EURE;Ministère de l'écologie, du développement durable, des transports et du logement;;2017;Personnes physiques non commerçantes;Gré à gré;2017;49.273645;1.209676
170270012;Cession réalisée;ESPACE NATUREL;ROMAIN ROLLAND;71380;ST MARCEL;EURE;Ministère de l'écologie, du développement durable, des transports et du logement;;2017;Etablissements publics locaux;Gré à gré;2017;46.775319;4.888715
170270013;Cession réalisée;BATIMENT TECHNIQUE;DU 11 NOVEMBRE;83500;LERY;EURE;Ministère de l'écologie, du développement durable, des transports et du logement;;2017;Collectivités territoriales;Droit de priorité;2017;43.111149;5.855012
170270015;Cession réalisée;ESPACE NATUREL;CHAUSSEE DE LERY;27100;VAL DE REUIL;EURE;Ministère de l'écologie, du développement durable, des transports et du logement;;2017;Collectivités territoriales;Gré à gré;2017;49.273645;1.209676
170290010;Cession réalisée;ESPACE NATUREL; ;29190;LENNON;FINISTÈRE;Ministère de l'écologie, du développement durable, des transports et du logement;;2017;Personnes physiques non commerçantes;Gré à gré;2017;48.19163;-3.898838
170290011;Cession réalisée;ESPACE NATUREL; ;29270;CLEDEN POHER;FINISTÈRE;Ministère de l'écologie, du développement durable, des transports et du logement;;2017;Personnes physiques non commerçantes;Appel d'offres;2017;48.235545;-3.669378
170290012;Cession réalisée;ESPACE NATUREL; ;29270;CLEDEN POHER;FINISTÈRE;Ministère de l'écologie, du développement durable, des transports et du logement;;2017;Personnes physiques non commerçantes;Appel d'offres;2017;48.235545;-3.669378
170290016;Cession réalisée;LOGEMENT;DE BREHAT;29460;DIRINON;FINISTÈRE;Ministère de l'écologie, du développement durable, des transports et du logement;;2017;Personnes physiques non commerçantes;Appel d'offres;2017;48.396975;-4.270384
170290019;Cession réalisée;LOGEMENT;DE BREHAT;29460;DIRINON;FINISTÈRE;Ministère de l'écologie, du développement durable, des transports et du logement;;2017;Personnes physiques non commerçantes;Appel d'offres;2017;48.396975;-4.270384
170290021;Cession réalisée;LOGEMENT;DE BREHAT;29460;DIRINON;FINISTÈRE;Ministère de l'écologie, du développement durable, des transports et du logement;;2017;Personnes physiques non commerçantes;Appel d'offres;2017;48.396975;-4.270384
170290023;Cession réalisée;LOGEMENT;DE BREHAT;29460;DIRINON;FINISTÈRE;Ministère de l'écologie, du développement durable, des transports et du logement;;2017;Personnes physiques non commerçantes;Appel d'offres;2017;48.396975;-4.270384
170290025;Cession réalisée;ESPACE NATUREL; ;29000;QUIMPER;FINISTÈRE;Ministère de l'écologie, du développement durable, des transports et du logement;;2017;Personnes physiques non commerçantes;Gré à gré;2017;47.995479;-4.098022
170290026;Cession réalisée;ESPACE NATUREL; ;29600;MORLAIX;FINISTÈRE;Ministère de l'écologie, du développement durable, des transports et du logement;;2017;Collectivités territoriales;Gré à gré;2017;48.577783;-3.827333
170290027;Cession réalisée;ESPACE NATUREL; ;29550;PLOMODIERN;FINISTÈRE;Biens non affectés;;2017;Collectivités territoriales;Gré à gré;2017;48.180651;-4.232409
